[{"status": "verified", "available": {"description": "Available at the same time of year, every year.", "id": 4, "name": "Seasonal"}, "isOrganic": "N", "breweries": [{"website": "http://sevenarrowsbrewing.com/", "established": "2014", "isOrganic": "N", "description": "Seven Arrows Brewing Company creates a relaxed, social and enjoyable environment that provides high quality and true to style beers.", "statusDisplay": "Verified", "createDate": "2015-02-23 12:45:24", "locations": [{"status": "verified", "openToPublic": "Y", "isPrimary": "Y", "hoursOfOperation": "Mon:  4:00pm - 10:00pm\nWed:  4:00pm - 10:00pm\nThu:  4:00pm - 10:00pm\nFri:  12:00pm - 10:00pm\nSat:  12:00pm - 10:00pm\nSun:  12:00pm - 10:00pm\n\n", "locationTypeDisplay": "Micro Brewery", "inPlanning": "N", "locality": "Waynesboro", "createDate": "2015-02-23 12:46:08", "id": "b7WWL6", "streetAddress": "2508 Jefferson Hwy", "postalCode": "22980", "extendedAddress": "Suite 1", "website": "http://sevenarrowsbrewing.com/", "statusDisplay": "Verified", "yearOpened": "2014", "countryIsoCode": "US", "phone": "(540) 221-6968", "isClosed": "N", "name": "Main Brewery", "latitude": 38.086856, "locationType": "micro", "region": "Virginia", "longitude": -78.938778, "updateDate": "2015-02-23 12:46:08", "country": {"displayName": "United States", "name": "UNITED STATES", "isoThree": "USA", "createDate": "2012-01-03 02:41:33", "numberCode": 840, "isoCode": "US"}}], "nameShortDisplay": "Seven Arrows", "status": "verified", "updateDate": "2015-12-22 16:05:18", "images": {"large": "https://s3.amazonaws.com/brewerydbapi/brewery/bJS2QO/upload_XNTCFy-large.png", "medium": "https://s3.amazonaws.com/brewerydbapi/brewery/bJS2QO/upload_XNTCFy-medium.png", "squareMedium": "https://s3.amazonaws.com/brewerydbapi/brewery/bJS2QO/upload_XNTCFy-squareMedium.png", "squareLarge": "https://s3.amazonaws.com/brewerydbapi/brewery/bJS2QO/upload_XNTCFy-squareLarge.png", "icon": "https://s3.amazonaws.com/brewerydbapi/brewery/bJS2QO/upload_XNTCFy-icon.png"}, "id": "bJS2QO", "name": "Seven Arrows Brewing Company"}], "description": "The Kriophoros Bock is a copper/brown bock that presents with a high malt character. There are subtle toasted/nut like aromas imparted from the Munich and Vienna malts used as the core of the malt bill. The malty sweetness of the beer is wonderfully balanced by the bitterness imparted by German noble hops. As is traditional with the style, the hop aroma and flavor is low. The beer is brewed with a clean German lager yeast and fermented at low temperatures to produce a beer that is low in ester character, while at same time producing a beer that finishes clean to allow the malt character to shine through.", "statusDisplay": "Verified", "nameDisplay": "Kriophoros Bock", "labels": {"large": "https://s3.amazonaws.com/brewerydbapi/beer/TX3giy/upload_pfY7kp-large.png", "medium": "https://s3.amazonaws.com/brewerydbapi/beer/TX3giy/upload_pfY7kp-medium.png", "icon": "https://s3.amazonaws.com/brewerydbapi/beer/TX3giy/upload_pfY7kp-icon.png"}, "style": {"category": {"createDate": "2012-03-21 20:06:46", "id": 7, "name": "European-germanic Lager"}, "ogMin": "1.066", "description": "Traditional bocks are made with all malt and are strong, malty, medium- to full-bodied, bottom-fermented beers with moderate hop bitterness that should increase proportionately with the starting gravity. Malt character should be a balance of sweetness and toasted/nut-like malt; not caramel. Hop flavor should be low and hop aroma should be very low. Bocks can range in color from deep copper to dark brown. Fruity esters should be minimal. Diacetyl should be absent.", "createDate": "2012-03-21 20:06:46", "ibuMin": "20", "categoryId": 7, "srmMax": "30", "ibuMax": "30", "abvMin": "6.3", "fgMin": "1.018", "updateDate": "2015-04-07 15:38:54", "fgMax": "1.024", "shortName": "Bock", "abvMax": "7.5", "id": 88, "srmMin": "20", "name": "Traditional German-Style Bock"}, "id": "TX3giy", "glass": {"createDate": "2012-01-03 02:41:33", "id": 4, "name": "Pilsner"}, "createDate": "2015-02-23 12:49:06", "updateDate": "2015-12-17 21:55:45", "abv": "6.5", "styleId": 88, "availableId": 4, "glasswareId": 4, "ibu": "23", "name": "Kriophoros Bock"}, {"status": "verified", "available": {"description": "Available year round as a staple beer.", "id": 1, "name": "Year Round"}, "isOrganic": "N", "breweries": [{"website": "http://www.hankiswiserbrewery.com/", "status": "verified", "isOrganic": "N", "description": "Hank is Wiser Brewery is a small family owned and operated brewpub located in the middle of downtown Cheney, Kansas.  The first house brewed beer was served on April 1, 2005 at their grand opening, just mere hours after Hank Sanford retired from a 22 year sales career in Wichita.  It was 35 years earlier that Hank had purchased his first beer sign.  Collecting brewery advertising, visiting over 300 breweries across the country, homebrewing for the last 15 years, and of course tasting well over 2000 different beers all lead to the dream and finally the reality of opening Hank is Wiser Brewery.", "statusDisplay": "Verified", "createDate": "2012-01-03 02:41:56", "locations": [{"status": "verified", "openToPublic": "Y", "isPrimary": "Y", "id": "kRmE6K", "locationTypeDisplay": "Brewpub", "inPlanning": "N", "locality": "Cheney", "createDate": "2012-01-03 02:41:56", "streetAddress": "213 N. Main St.", "postalCode": "67025", "extendedAddress": "P.O. Box 400", "website": "http://www.hankiswiserbrewery.com/", "statusDisplay": "Verified", "countryIsoCode": "US", "phone": "316 - 542 - 0113", "isClosed": "N", "name": "Main Brewery", "latitude": 37.628385, "locationType": "brewpub", "region": "Kansas", "longitude": -97.7816129, "updateDate": "2014-07-23 19:11:34", "country": {"displayName": "United States", "name": "UNITED STATES", "isoThree": "USA", "createDate": "2012-01-03 02:41:33", "numberCode": 840, "isoCode": "US"}}], "nameShortDisplay": "Hank Is Wiser", "updateDate": "2015-12-22 15:20:06", "id": "Y2RzRP", "name": "Hank Is Wiser Brewery"}], "description": "This India Pale Ale offers the hop lover a taste of generous amounts of Amarillo, Cascade & Centennial hop additions.  Not a beer for the novice.", "statusDisplay": "Verified", "nameDisplay": "krippled kangaroo ipa", "labels": {"large": "https://s3.amazonaws.com/brewerydbapi/beer/qqBsgi/upload_0CfZMz-large.png", "medium": "https://s3.amazonaws.com/brewerydbapi/beer/qqBsgi/upload_0CfZMz-medium.png", "icon": "https://s3.amazonaws.com/brewerydbapi/beer/qqBsgi/upload_0CfZMz-icon.png"}, "style": {"category": {"createDate": "2012-03-21 20:06:45", "id": 3, "name": "North American Origin Ales"}, "ogMin": "1.06", "description": "American-style India pale ales are perceived to have medium-high to intense hop bitterness, flavor and aroma with medium-high alcohol content. The style is further characterized by floral, fruity, citrus-like, piney, resinous, or sulfur-like American-variety hop character. Note that one or more of these American-variety hop characters is the perceived end, but the hop characters may be a result of the skillful use of hops of other national origins. The use of water with high mineral content results in a crisp, dry beer. This pale gold to deep copper-colored ale has a full, flowery hop aroma and may have a strong hop flavor (in addition to the perception of hop bitterness). India pale ales possess medium maltiness which contributes to a medium body. Fruity-ester flavors and aromas are moderate to very strong. Diacetyl can be absent or may be perceived at very low levels. Chill and/or hop haze is allowable at cold temperatures. (English and citrus-like American hops are considered enough of a distinction justifying separate American-style IPA and English-style IPA categories or subcategories. Hops of other origins may be used for bitterness or approximating traditional American or English character. See English-style India Pale Ale", "createDate": "2012-03-21 20:06:45", "ibuMin": "50", "categoryId": 3, "srmMax": "14", "ibuMax": "70", "abvMin": "6.3", "fgMin": "1.012", "updateDate": "2015-04-07 15:26:37", "fgMax": "1.018", "shortName": "American IPA", "abvMax": "7.5", "id": 30, "srmMin": "6", "name": "American-Style India Pale Ale"}, "createDate": "2015-04-20 15:10:34", "updateDate": "2015-12-17 23:59:37", "abv": "5.1", "styleId": 30, "availableId": 1, "id": "qqBsgi", "name": "krippled kangaroo ipa"}, {"status": "verified", "available": {"description": "Available during the winter months.", "id": 8, "name": "Winter"}, "isOrganic": "N", "breweries": [{"website": "http://www.mcmenamins.com/", "established": "1985", "isOrganic": "N", "description": "Since our first brew at the Hillsdale Brewery & Public House in 1985, McMenamins has produced more than 57,600 batches. In 2011 our breweries collectively crafted 3302 batches of beer (including over 250 new and unusual house-specific recipes) more than 47,263 kegs of beer or an astounding 5.8 million pints!\r\n\r\nIn keeping with McMenamins' company philosophy, our breweries believe that brewing \"green\" is brewing responsibly.\r\n\r\nMany beer lovers are familiar with our ales, such as Terminator Stout, Hammerhead, Ruby, Edgefield Wheat, Black Rabbit Porter, Sunflower IPA and others. Read more about these \"standards\" and dozens of others, including our beloved seasonal ales.\r\n\r\nDue to the nature of handcrafting, it's safe to say that no two McMenamins batches are identical. Science and technology provide the backbone for our craft, but it is the unique qualities of each brew house, and the individual brewer's ale-crafting style, that ensure you will enjoy liquid refreshments that are truly special and made with every care for the environment. Cheers!", "statusDisplay": "Verified", "createDate": "2012-01-03 02:42:01", "locations": [{"inPlanning": "N", "countryIsoCode": "US", "name": "McMenamins Mill Creek Brewery", "locality": "Mill Creek", "openToPublic": "Y", "locationType": "micro", "region": "Washington", "longitude": -122.2124833, "isClosed": "N", "phone": "1-425-316-0520", "streetAddress": "13300 Bothell-Everett Highway #304", "createDate": "2012-01-03 02:42:01", "status": "verified", "updateDate": "2014-07-23 19:11:34", "country": {"displayName": "United States", "name": "UNITED STATES", "isoThree": "USA", "createDate": "2012-01-03 02:41:33", "numberCode": 840, "isoCode": "US"}, "postalCode": "98012", "latitude": 47.8763353, "isPrimary": "N", "id": "PxG0KA", "locationTypeDisplay": "Micro Brewery", "statusDisplay": "Verified"}, {"openToPublic": "Y", "isPrimary": "N", "id": "KrPgRK", "locationTypeDisplay": "Micro Brewery", "inPlanning": "N", "locality": "Portland", "createDate": "2012-10-04 17:40:37", "streetAddress": "5736 NE 33rd", "postalCode": "97211", "status": "verified", "statusDisplay": "Verified", "yearOpened": "1997", "countryIsoCode": "US", "phone": "(503) 249-7459", "isClosed": "N", "name": "Concordia Brewery", "latitude": 45.564106, "locationType": "micro", "region": "Oregon", "longitude": -122.630641, "updateDate": "2014-07-23 19:11:34", "country": {"displayName": "United States", "name": "UNITED STATES", "isoThree": "USA", "createDate": "2012-01-03 02:41:33", "numberCode": 840, "isoCode": "US"}}, {"inPlanning": "N", "countryIsoCode": "US", "name": "Cornelius Pass Roadhouse Brewery", "locality": "Hillsboro", "openToPublic": "Y", "locationType": "micro", "region": "Oregon", "longitude": -122.899899, "isClosed": "N", "phone": "(503) 640-6174", "streetAddress": "4045 NW Cornelius Pass Rd", "createDate": "2012-10-04 17:42:32", "status": "verified", "updateDate": "2014-07-23 19:11:34", "country": {"displayName": "United States", "name": "UNITED STATES", "isoThree": "USA", "createDate": "2012-01-03 02:41:33", "numberCode": 840, "isoCode": "US"}, "postalCode": "97124", "latitude": 45.548912, "isPrimary": "N", "id": "xB8Ual", "locationTypeDisplay": "Micro Brewery", "statusDisplay": "Verified"}, {"inPlanning": "N", "countryIsoCode": "US", "name": "Crystal Ballroom Brewery", "locality": "Portland", "openToPublic": "Y", "locationType": "micro", "region": "Oregon", "longitude": -122.684721, "isClosed": "N", "phone": "(503) 225-0047", "streetAddress": "1332 West Burnside", "createDate": "2012-10-04 17:43:17", "status": "verified", "updateDate": "2014-07-23 19:11:34", "country": {"displayName": "United States", "name": "UNITED STATES", "isoThree": "USA", "createDate": "2012-01-03 02:41:33", "numberCode": 840, "isoCode": "US"}, "postalCode": "97205", "latitude": 45.522929, "isPrimary": "N", "id": "ZUrIkC", "locationTypeDisplay": "Micro Brewery", "statusDisplay": "Verified"}, {"inPlanning": "N", "countryIsoCode": "US", "name": "Edgefield Brewery", "locality": "Troutdale", "openToPublic": "Y", "locationType": "micro", "region": "Oregon", "longitude": -122.408256, "isClosed": "N", "phone": "(503) 667-4352", "streetAddress": "2126 SW Halsey Street", "createDate": "2012-10-04 17:43:55", "status": "verified", "updateDate": "2014-07-23 19:11:34", "country": {"displayName": "United States", "name": "UNITED STATES", "isoThree": "USA", "createDate": "2012-01-03 02:41:33", "numberCode": 840, "isoCode": "US"}, "postalCode": "97060", "latitude": 45.538464, "isPrimary": "N", "id": "Boa6td", "locationTypeDisplay": "Micro Brewery", "statusDisplay": "Verified"}, {"inPlanning": "N", "countryIsoCode": "US", "name": "Fulton Brewery", "locality": "Portland", "openToPublic": "Y", "locationType": "micro", "region": "Oregon", "longitude": -122.672857, "isClosed": "N", "phone": "(503) 246-4363", "streetAddress": "0618 SW Nebraska Street", "createDate": "2012-10-04 17:44:28", "status": "verified", "updateDate": "2014-07-23 19:11:34", "country": {"displayName": "United States", "name": "UNITED STATES", "isoThree": "USA", "createDate": "2012-01-03 02:41:33", "numberCode": 840, "isoCode": "US"}, "postalCode": "97201", "latitude": 45.47724, "isPrimary": "N", "id": "o8Iv34", "locationTypeDisplay": "Micro Brewery", "statusDisplay": "Verified"}, {"inPlanning": "N", "countryIsoCode": "US", "name": "Highland Brewery", "locality": "Gresham", "openToPublic": "Y", "locationType": "micro", "region": "Oregon", "longitude": -122.475544, "isClosed": "N", "phone": "(503) 661-7538", "streetAddress": "4225 SE 182nd Street", "createDate": "2012-10-04 17:45:07", "status": "verified", "updateDate": "2014-07-23 19:11:34", "country": {"displayName": "United States", "name": "UNITED STATES", "isoThree": "USA", "createDate": "2012-01-03 02:41:33", "numberCode": 840, "isoCode": "US"}, "postalCode": "97030", "latitude": 45.491984, "isPrimary": "N", "id": "QS1jCV", "locationTypeDisplay": "Micro Brewery", "statusDisplay": "Verified"}, {"inPlanning": "N", "countryIsoCode": "US", "name": "High Street Brewery", "locality": "Eugene", "openToPublic": "Y", "locationType": "micro", "region": "Oregon", "longitude": -123.088201, "isClosed": "N", "phone": "(541) 345-4913", "streetAddress": "1243 High Street", "createDate": "2012-10-04 17:45:42", "status": "verified", "updateDate": "2014-07-23 19:11:34", "country": {"displayName": "United States", "name": "UNITED STATES", "isoThree": "USA", "createDate": "2012-01-03 02:41:33", "numberCode": 840, "isoCode": "US"}, "postalCode": "97401", "latitude": 44.046201, "isPrimary": "N", "id": "2lkXLw", "locationTypeDisplay": "Micro Brewery", "statusDisplay": "Verified"}, {"inPlanning": "N", "countryIsoCode": "US", "name": "Hillsdale Brewery", "locality": "Portland", "openToPublic": "Y", "locationType": "micro", "region": "Oregon", "longitude": -122.693616, "isClosed": "N", "phone": "(503) 293-1753", "streetAddress": "1505 SW Sunset Blvd.", "createDate": "2012-10-04 17:46:13", "status": "verified", "updateDate": "2014-07-23 19:11:34", "country": {"displayName": "United States", "name": "UNITED STATES", "isoThree": "USA", "createDate": "2012-01-03 02:41:33", "numberCode": 840, "isoCode": "US"}, "postalCode": "97201", "latitude": 45.478886, "isPrimary": "Y", "id": "f5TLVN", "locationTypeDisplay": "Micro Brewery", "statusDisplay": "Verified"}, {"inPlanning": "N", "countryIsoCode": "US", "name": "John Barleycorns Brewery", "locality": "Tigard", "openToPublic": "Y", "locationType": "micro", "region": "Oregon", "longitude": -122.746923, "isClosed": "N", "phone": "(503) 684-6253", "streetAddress": "14610 SW Sequoia Parkway", "createDate": "2012-10-04 17:46:46", "status": "verified", "updateDate": "2014-07-23 19:11:34", "country": {"displayName": "United States", "name": "UNITED STATES", "isoThree": "USA", "createDate": "2012-01-03 02:41:33", "numberCode": 840, "isoCode": "US"}, "postalCode": "97223", "latitude": 45.414278, "isPrimary": "N", "id": "HPC9eo", "locationTypeDisplay": "Micro Brewery", "statusDisplay": "Verified"}, {"inPlanning": "N", "countryIsoCode": "US", "name": "Lighthouse Brewery", "locality": "Lincoln City", "openToPublic": "Y", "locationType": "micro", "region": "Oregon", "longitude": -124.001199, "isClosed": "N", "phone": "(541) 994-9678", "streetAddress": "4157 North Highway 101", "createDate": "2012-10-04 17:47:20", "status": "verified", "updateDate": "2014-07-23 19:11:34", "country": {"displayName": "United States", "name": "UNITED STATES", "isoThree": "USA", "createDate": "2012-01-03 02:41:33", "numberCode": 840, "isoCode": "US"}, "postalCode": "97367", "latitude": 44.997162, "isPrimary": "N", "id": "tiuxoF", "locationTypeDisplay": "Micro Brewery", "statusDisplay": "Verified"}, {"inPlanning": "N", "countryIsoCode": "US", "name": "McMenamins on Monroe Brewery", "locality": "Corvallis", "openToPublic": "Y", "locationType": "micro", "region": "Oregon", "longitude": -123.275199, "isClosed": "N", "phone": "(541) 758-0080", "streetAddress": "2001 N.W. Monroe Avenue", "createDate": "2012-10-04 17:47:52", "status": "verified", "updateDate": "2014-07-23 19:11:34", "country": {"displayName": "United States", "name": "UNITED STATES", "isoThree": "USA", "createDate": "2012-01-03 02:41:33", "numberCode": 840, "isoCode": "US"}, "postalCode": "97330", "latitude": 44.56796, "isPrimary": "N", "id": "W2dlxg", "locationTypeDisplay": "Micro Brewery", "statusDisplay": "Verified"}, {"inPlanning": "N", "countryIsoCode": "US", "name": "Oak Hills Brewery", "locality": "Portland", "openToPublic": "Y", "locationType": "micro", "region": "Oregon", "longitude": -122.829545, "isClosed": "N", "phone": "(503) 645-0117", "streetAddress": "14740 NW Cornell Rd, Ste 80", "createDate": "2012-10-04 17:48:23", "status": "verified", "updateDate": "2014-07-23 19:11:34", "country": {"displayName": "United States", "name": "UNITED STATES", "isoThree": "USA", "createDate": "2012-01-03 02:41:33", "numberCode": 840, "isoCode": "US"}, "postalCode": "97229", "latitude": 45.53173, "isPrimary": "N", "id": "8MMa77", "locationTypeDisplay": "Micro Brewery", "statusDisplay": "Verified"}, {"inPlanning": "N", "countryIsoCode": "US", "name": "Old St. Francis School Brewery", "locality": "Bend", "openToPublic": "Y", "locationType": "micro", "region": "Oregon", "longitude": -121.314786, "isClosed": "N", "phone": "(541)382-5174", "streetAddress": "700 NW Bond Street", "createDate": "2012-10-04 17:48:56", "status": "verified", "updateDate": "2014-07-23 19:11:34", "country": {"displayName": "United States", "name": "UNITED STATES", "isoThree": "USA", "createDate": "2012-01-03 02:41:33", "numberCode": 840, "isoCode": "US"}, "postalCode": "97701", "latitude": 44.056708, "isPrimary": "N", "id": "kg5OGY", "locationTypeDisplay": "Micro Brewery", "statusDisplay": "Verified"}, {"inPlanning": "N", "countryIsoCode": "US", "name": "Roseburg Station Brewery", "locality": "Roseburg", "openToPublic": "Y", "locationType": "micro", "region": "Oregon", "longitude": -123.348227, "isClosed": "N", "phone": "(541) 672-5565", "streetAddress": "700 SE Sheridan", "createDate": "2012-10-04 17:49:27", "status": "verified", "updateDate": "2014-10-29 16:07:55", "country": {"displayName": "United States", "name": "UNITED STATES", "isoThree": "USA", "createDate": "2012-01-03 02:41:33", "numberCode": 840, "isoCode": "US"}, "postalCode": "97470", "latitude": 43.209146, "isPrimary": "N", "id": "MzoCPz", "locationTypeDisplay": "Micro Brewery", "statusDisplay": "Verified"}, {"inPlanning": "N", "countryIsoCode": "US", "name": "Thompson Brewery", "locality": "Salem", "openToPublic": "Y", "locationType": "micro", "region": "Oregon", "longitude": -123.051097, "isClosed": "N", "phone": "(503) 371-2945", "streetAddress": "3575 Liberty Rd South", "createDate": "2012-10-04 17:50:01", "status": "verified", "updateDate": "2014-07-23 19:11:34", "country": {"displayName": "United States", "name": "UNITED STATES", "isoThree": "USA", "createDate": "2012-01-03 02:41:33", "numberCode": 840, "isoCode": "US"}, "postalCode": "97302", "latitude": 44.903691, "isPrimary": "N", "id": "zJX0ZQ", "locationTypeDisplay": "Micro Brewery", "statusDisplay": "Verified"}, {"inPlanning": "N", "countryIsoCode": "US", "name": "West Linn Brewery", "locality": "West Linn", "openToPublic": "Y", "locationType": "micro", "region": "Oregon", "longitude": -122.652273, "isClosed": "N", "phone": "(503) 656-2935", "streetAddress": "2090 SW 8th Avenue", "createDate": "2012-10-04 17:50:51", "status": "verified", "updateDate": "2014-07-23 19:11:34", "country": {"displayName": "United States", "name": "UNITED STATES", "isoThree": "USA", "createDate": "2012-01-03 02:41:33", "numberCode": 840, "isoCode": "US"}, "postalCode": "97068", "latitude": 45.345889, "isPrimary": "N", "id": "bdFoir", "locationTypeDisplay": "Micro Brewery", "statusDisplay": "Verified"}, {"inPlanning": "N", "countryIsoCode": "US", "name": "Wilsonville Brewery", "locality": "Wilsonville", "openToPublic": "Y", "locationType": "micro", "region": "Oregon", "longitude": -122.773377, "isClosed": "N", "phone": "(503) 427-2505", "streetAddress": "30340 SW Boones Ferry Road", "createDate": "2012-10-04 17:51:22", "status": "verified", "updateDate": "2014-07-23 19:11:34", "country": {"displayName": "United States", "name": "UNITED STATES", "isoThree": "USA", "createDate": "2012-01-03 02:41:33", "numberCode": 840, "isoCode": "US"}, "postalCode": "97070", "latitude": 45.300855, "isPrimary": "N", "id": "DwycsI", "locationTypeDisplay": "Micro Brewery", "statusDisplay": "Verified"}, {"inPlanning": "N", "countryIsoCode": "US", "name": "East Vancouver Brewery", "locality": "Vancouver", "openToPublic": "Y", "locationType": "micro", "region": "Washington", "longitude": -122.506119, "isClosed": "N", "phone": "(360) 254-3992", "streetAddress": "1900 NE 162nd, Bldg. 107", "createDate": "2012-10-04 17:52:02", "status": "verified", "updateDate": "2014-07-23 19:11:34", "country": {"displayName": "United States", "name": "UNITED STATES", "isoThree": "USA", "createDate": "2012-01-03 02:41:33", "numberCode": 840, "isoCode": "US"}, "postalCode": "98684", "latitude": 45.636961, "isPrimary": "N", "id": "qGhR1j", "locationTypeDisplay": "Micro Brewery", "statusDisplay": "Verified"}, {"inPlanning": "N", "countryIsoCode": "US", "name": "McMenamins on the Columbia Brewery", "locality": "Vancouver", "openToPublic": "Y", "locationType": "micro", "region": "Washington", "longitude": -122.653216, "isClosed": "N", "phone": "(360) 699-1521", "streetAddress": "1801 SE Columbia River Dr.", "createDate": "2012-10-04 17:52:34", "status": "verified", "updateDate": "2014-07-23 19:11:34", "country": {"displayName": "United States", "name": "UNITED STATES", "isoThree": "USA", "createDate": "2012-01-03 02:41:33", "numberCode": 840, "isoCode": "US"}, "postalCode": "98661", "latitude": 45.615604, "isPrimary": "N", "id": "SaQFBA", "locationTypeDisplay": "Micro Brewery", "statusDisplay": "Verified"}, {"inPlanning": "N", "countryIsoCode": "US", "name": "McMenamins Mill Creek Brewery", "locality": "Mill Creek", "openToPublic": "Y", "locationType": "micro", "region": "Washington", "longitude": -122.21237, "isClosed": "N", "phone": "(425) 316-0520", "streetAddress": "13300 Bothell-Everett Hwy, Ste. 304", "createDate": "2012-10-04 17:53:08", "status": "verified", "updateDate": "2014-07-23 19:11:34", "country": {"displayName": "United States", "name": "UNITED STATES", "isoThree": "USA", "createDate": "2012-01-03 02:41:33", "numberCode": 840, "isoCode": "US"}, "postalCode": "98012", "latitude": 47.876421, "isPrimary": "N", "id": "4u93Kb", "locationTypeDisplay": "Micro Brewery", "statusDisplay": "Verified"}, {"inPlanning": "N", "countryIsoCode": "US", "name": "McMenamins Queen Anne", "locality": "Seattle", "openToPublic": "Y", "locationType": "micro", "region": "Washington", "longitude": -122.352649, "isClosed": "N", "phone": "(206) 285-4722", "streetAddress": "200 Roy Street, Ste. 105", "createDate": "2012-10-04 17:53:39", "status": "verified", "updateDate": "2014-07-23 19:11:34", "country": {"displayName": "United States", "name": "UNITED STATES", "isoThree": "USA", "createDate": "2012-01-03 02:41:33", "numberCode": 840, "isoCode": "US"}, "postalCode": "98109", "latitude": 47.625476, "isPrimary": "N", "id": "hDrrU2", "locationTypeDisplay": "Micro Brewery", "statusDisplay": "Verified"}, {"inPlanning": "N", "countryIsoCode": "US", "name": "Olympic Club Brewery", "locality": "Centralia", "openToPublic": "Y", "locationType": "micro", "region": "Washington", "longitude": -122.954259, "isClosed": "N", "phone": "(360) 736-5164", "streetAddress": "112 North Tower Ave.", "createDate": "2012-10-04 17:54:09", "status": "verified", "updateDate": "2014-07-23 19:11:34", "country": {"displayName": "United States", "name": "UNITED STATES", "isoThree": "USA", "createDate": "2012-01-03 02:41:33", "numberCode": 840, "isoCode": "US"}, "postalCode": "98531", "latitude": 46.716442, "isPrimary": "N", "id": "JXafdT", "locationTypeDisplay": "Micro Brewery", "statusDisplay": "Verified"}, {"inPlanning": "N", "countryIsoCode": "US", "name": "Six Arms Brewery", "locality": "Seattle", "openToPublic": "Y", "locationType": "micro", "region": "Washington", "longitude": -122.327721, "isClosed": "N", "phone": "(206) 223-1698", "streetAddress": "300 E. Pike Street", "createDate": "2012-10-04 17:54:43", "status": "verified", "updateDate": "2014-07-23 19:11:34", "country": {"displayName": "United States", "name": "UNITED STATES", "isoThree": "USA", "createDate": "2012-01-03 02:41:33", "numberCode": 840, "isoCode": "US"}, "postalCode": "98122", "latitude": 47.61396, "isPrimary": "N", "id": "vrJTmu", "locationTypeDisplay": "Micro Brewery", "statusDisplay": "Verified"}, {"inPlanning": "N", "countryIsoCode": "US", "name": "Spar Brewery", "locality": "Olympia", "openToPublic": "Y", "locationType": "micro", "region": "Washington", "longitude": -122.901399, "isClosed": "N", "phone": "(360) 357-6444", "streetAddress": "114 4th Ave. E.", "createDate": "2012-10-04 17:55:13", "status": "verified", "updateDate": "2014-07-23 19:11:34", "country": {"displayName": "United States", "name": "UNITED STATES", "isoThree": "USA", "createDate": "2012-01-03 02:41:33", "numberCode": 840, "isoCode": "US"}, "postalCode": "98501", "latitude": 47.04493, "isPrimary": "N", "id": "YB2HwL", "locationTypeDisplay": "Micro Brewery", "statusDisplay": "Verified"}], "nameShortDisplay": "McMenamins Breweries", "status": "verified", "updateDate": "2015-12-22 14:51:55", "images": {"large": "https://s3.amazonaws.com/brewerydbapi/brewery/NqX68g/upload_Lxe0LA-large.png", "medium": "https://s3.amazonaws.com/brewerydbapi/brewery/NqX68g/upload_Lxe0LA-medium.png", "squareMedium": "https://s3.amazonaws.com/brewerydbapi/brewery/NqX68g/upload_Lxe0LA-squareMedium.png", "squareLarge": "https://s3.amazonaws.com/brewerydbapi/brewery/NqX68g/upload_Lxe0LA-squareLarge.png", "icon": "https://s3.amazonaws.com/brewerydbapi/brewery/NqX68g/upload_Lxe0LA-icon.png"}, "id": "NqX68g", "name": "McMenamins Breweries"}], "description": "Just in time for the holidays, November 18th marks the release of this year's McMenamins Traditional Yuletide Ale, Kris Kringle. The busy-as-elves McMenamins brewers have created another wonderful gift for your taste buds this holiday season. The 2011 version of Kris Kringle is a hearty and robust ale with a big and bold malt complexity as well as an intense and flavorful hop profile. This \"winter warmer\" highlights the rich, toasty, aromatic and chocolaty malt flavors as its very sturdy foundation. Generous amounts of four different hop varieties were added in five different additions that delivers a magnificent and massive hop assault. There's still some ginger and cinnamon added into the batch but the spices are a little more subdued than in years' past. McMenamins brewers hope you enjoy this years' version of our old Holiday favorite, Kris Kringle. It should pour concurrently with Sleepy Hollow Nut Brown. Happy Holidays and a Wonderful New Year!", "statusDisplay": "Verified", "ingredients": {"hops": [{"myrceneMax": 60, "farneseneMax": 6, "cohumuloneMax": 40, "id": 22, "humuleneMax": 13, "category": "hop", "createDate": "2013-06-24 16:07:28", "farneseneMin": 6, "humuleneMin": 13, "betaAcidMax": 7, "cohumuloneMin": 33, "myrceneMin": 45, "alphaAcidMin": 5.5, "description": "Cascade was created in the United States as an open-pollinated cross between Fuggle and Serebrianker. Its instantly recognizable grapefruit, floral aroma is characteristic of many American ales. Cascade is also one of the easiest hop varieties to grow; it can grow well under less than ideal conditions or in short growing seasons, and unlike most varieties, if started from a good rhizome a Cascade can produce a good crop even in its first growing season.", "betaAcidMin": 4.5, "caryophylleneMax": 4.5, "caryophylleneMin": 4.5, "name": "Cascade", "countryOfOrigin": "US", "country": {"displayName": "United States", "name": "UNITED STATES", "isoThree": "USA", "createDate": "2012-01-03 02:41:33", "numberCode": 840, "isoCode": "US"}, "categoryDisplay": "Hops", "updateDate": "2013-06-24 16:10:37"}, {"myrceneMax": 60, "category": "hop", "farneseneMax": 1, "description": "Sometimes called a super Cascade, Centennial was bred in 1974 but not released until 1990. It has a floral, citrus aroma and a clean spicy flavor; its heritage includes Brewer's Gold, Fuggle, and East Kent Golding. Popular among craft brewers, Centennial lends its distinctive character to, among others, Sierra Nevada Celebration Ale and Sierra Nevada Bigfoot Barleywine.", "countryOfOrigin": "US", "country": {"displayName": "United States", "name": "UNITED STATES", "isoThree": "USA", "createDate": "2012-01-03 02:41:33", "numberCode": 840, "isoCode": "US"}, "createDate": "2013-06-24 16:07:28", "betaAcidMin": 3.5, "categoryDisplay": "Hops", "id": 24, "humuleneMin": 10, "betaAcidMax": 4.5, "caryophylleneMax": 8, "updateDate": "2013-06-24 16:10:37", "caryophylleneMin": 4, "cohumuloneMax": 30, "cohumuloneMin": 28, "myrceneMin": 45, "alphaAcidMin": 6, "humuleneMax": 18, "name": "Centennial"}, {"myrceneMax": 45, "farneseneMax": 16, "cohumuloneMax": 24, "id": 114, "humuleneMax": 26, "category": "hop", "createDate": "2013-06-24 16:07:36", "farneseneMin": 13, "humuleneMin": 20, "betaAcidMax": 8.5, "cohumuloneMin": 20, "myrceneMin": 27, "alphaAcidMin": 5, "description": "A triploid American aroma hop created from a diploid Tettnanger and a tetraploid Hallertauer, Santiam was released in 1998. It is considered an excellent aroma hop with some Tettnanger-like noble character.", "betaAcidMin": 6, "caryophylleneMax": 8, "caryophylleneMin": 5, "name": "Santiam", "countryOfOrigin": "US", "country": {"displayName": "United States", "name": "UNITED STATES", "isoThree": "USA", "createDate": "2012-01-03 02:41:33", "numberCode": 840, "isoCode": "US"}, "categoryDisplay": "Hops", "updateDate": "2013-06-24 16:10:38"}, {"myrceneMax": 48, "farneseneMax": 15, "cohumuloneMax": 24, "id": 130, "humuleneMax": 23, "category": "hop", "createDate": "2013-06-24 16:07:37", "farneseneMin": 11, "humuleneMin": 6, "betaAcidMax": 6, "cohumuloneMin": 21, "myrceneMin": 44, "alphaAcidMin": 4.5, "description": "Sterling is a relatively new diploid aroma variety, developed from, among other parents, Saaz, Cascade, Brewer's Gold, and Early Green. It is considered to have a very good noble hop style of spicy, floral, slightly citrusy character and is often recommended as a substitute for Saaz.", "betaAcidMin": 4, "caryophylleneMax": 22, "caryophylleneMin": 5, "name": "Sterling", "countryOfOrigin": "US", "country": {"displayName": "United States", "name": "UNITED STATES", "isoThree": "USA", "createDate": "2012-01-03 02:41:33", "numberCode": 840, "isoCode": "US"}, "categoryDisplay": "Hops", "updateDate": "2013-06-24 16:10:38"}], "malt": [{"category": "malt", "name": "Caramel/Crystal Malt 15L", "characteristics": [{"description": "Increases the body of the beer.", "createDate": "2013-06-24 16:07:26", "id": 3, "name": "Body"}, {"description": "Imparts a caramel quality upon the beer.", "createDate": "2013-06-24 16:07:26", "id": 5, "name": "Caramel"}, {"description": "Helps the head retention of the beer.", "createDate": "2013-06-24 16:07:26", "id": 9, "name": "Head"}, {"description": "Imparts a sweet flavor upon the beer.", "createDate": "2013-06-24 16:07:26", "id": 14, "name": "Sweet"}], "createDate": "2013-06-24 16:07:48", "categoryDisplay": "Malts, Grains, & Fermentables", "id": 477}, {"category": "malt", "name": "Caramel/Crystal Malt 120L", "characteristics": [{"description": "Increases the body of the beer.", "createDate": "2013-06-24 16:07:26", "id": 3, "name": "Body"}, {"description": "Imparts a caramel quality upon the beer.", "createDate": "2013-06-24 16:07:26", "id": 5, "name": "Caramel"}, {"description": "Helps the head retention of the beer.", "createDate": "2013-06-24 16:07:26", "id": 9, "name": "Head"}, {"description": "Imparts a sweet flavor upon the beer.", "createDate": "2013-06-24 16:07:26", "id": 14, "name": "Sweet"}], "createDate": "2013-06-24 16:07:45", "categoryDisplay": "Malts, Grains, & Fermentables", "id": 388}, {"category": "malt", "srmPrecise": 350, "description": "A dark malt that gives a rich red or brown color and a nutty flavor, used in brown ales, porters, and some stouts.", "srmId": 41, "countryOfOrigin": "US", "characteristics": [{"description": "Imparts a chocolate quality upon the beer.", "createDate": "2013-06-24 16:07:26", "id": 6, "name": "Chocolate"}, {"description": "Imparts a coffee flavor upon the beer.", "createDate": "2013-06-24 16:07:26", "id": 7, "name": "Coffee"}, {"description": "Imparts a nutty flavor upon the beer.", "createDate": "2013-06-24 16:07:26", "id": 11, "name": "Nutty"}, {"description": "Imparts a toasted flavor upon the beer.", "createDate": "2013-06-24 16:07:26", "id": 15, "name": "Toasted"}], "createDate": "2013-06-24 16:07:47", "categoryDisplay": "Malts, Grains, & Fermentables", "srm": {"hex": "000000", "id": 41, "name": "Over 40"}, "updateDate": "2013-06-24 16:10:14", "potential": 1.028, "coarseFineDifference": 1.5, "maxInBatch": 10, "requiresMashing": "N", "dryYield": 60, "protein": 13.2, "country": {"displayName": "United States", "name": "UNITED STATES", "isoThree": "USA", "createDate": "2012-01-03 02:41:33", "numberCode": 840, "isoCode": "US"}, "id": 429, "moistureContent": 4, "name": "Chocolate Malt"}, {"characteristics": [{"description": "Imparts a malty flavor upon the beer.", "createDate": "2013-06-24 16:07:26", "id": 10, "name": "Malty"}, {"description": "Imparts a sweet flavor upon the beer.", "createDate": "2013-06-24 16:07:26", "id": 14, "name": "Sweet"}], "srmPrecise": 9, "description": "Munich Malt has a malty sweet flavor characteristic and adds a reddish amber color to the beer. It has enough diastatic power to convert itself, but needs help from another malt, such as 2-row malt, to convert other grains.", "srmId": 9, "countryOfOrigin": "DE", "diastaticPower": 72, "createDate": "2013-06-24 16:07:52", "categoryDisplay": "Malts, Grains, & Fermentables", "srm": {"hex": "E58500", "id": 9, "name": "9"}, "country": {"displayName": "Germany", "name": "GERMANY", "isoThree": "DEU", "createDate": "2012-01-03 02:41:33", "numberCode": 276, "isoCode": "DE"}, "updateDate": "2013-06-24 16:10:14", "potential": 1.037, "coarseFineDifference": 1.3, "maxInBatch": 80, "requiresMashing": "Y", "dryYield": 80, "protein": 11.5, "category": "malt", "id": 650, "moistureContent": 5, "name": "Munich Malt"}, {"category": "malt", "name": "Pale Malt", "characteristics": [{"description": "Imparts a malty flavor upon the beer.", "createDate": "2013-06-24 16:07:26", "id": 10, "name": "Malty"}], "createDate": "2013-06-24 16:07:42", "categoryDisplay": "Malts, Grains, & Fermentables", "id": 234}, {"category": "malt", "createDate": "2013-06-24 16:07:56", "categoryDisplay": "Malts, Grains, & Fermentables", "id": 854, "name": "Wheat Malt"}]}, "nameDisplay": "Kris Kringle", "labels": {"large": "https://s3.amazonaws.com/brewerydbapi/beer/KqCZiF/upload_7TkR4g-large.png", "medium": "https://s3.amazonaws.com/brewerydbapi/beer/KqCZiF/upload_7TkR4g-medium.png", "icon": "https://s3.amazonaws.com/brewerydbapi/beer/KqCZiF/upload_7TkR4g-icon.png"}, "originalGravity": "1.068", "name": "Kris Kringle", "glass": {"createDate": "2012-01-03 02:41:33", "id": 5, "name": "Pint"}, "createDate": "2012-10-04 18:19:27", "updateDate": "2015-12-16 19:10:13", "abv": "6.84", "styleId": 124, "availableId": 8, "style": {"category": {"createDate": "2012-03-21 20:06:46", "id": 11, "name": "Hybrid/mixed Beer"}, "ogMin": "1.03", "description": "Herb beers use herbs or spices (derived from roots, seeds, fruits, vegetable, flowers, etc.) other than or in addition to hops to create a distinct (ranging from subtle to intense) character, though individual characters of herbs and/or spices used may not always be identifiable. Under hopping often, but not always, allows the spice or herb to contribute to the flavor profile. Positive evaluations are significantly based on perceived balance of flavors. Note: Chili-flavored beers that emphasize heat rather than chili flavor should be entered as a \"spiced\" beer.  A statement by the brewer explaining what herbs or spices are used is essential in order for fair assessment in competitions. Specifying a style upon which the beer is based may help evaluation. If this beer is a classic style with an herb or spice, the brewer should specify the classic style. If no Chocolate or Coffee category exists in a competition, then chocolate and coffee beers should be entered in this category.", "createDate": "2012-03-21 20:06:46", "ibuMin": "5", "categoryId": 11, "srmMax": "50", "ibuMax": "70", "abvMin": "2.5", "fgMin": "1.006", "updateDate": "2015-04-07 15:44:45", "fgMax": "1.03", "shortName": "Spice Beer", "abvMax": "12", "id": 124, "srmMin": "5", "name": "Herb and Spice Beer"}, "id": "KqCZiF", "glasswareId": 5}, {"status": "verified", "isOrganic": "Y", "name": "Kristall Weiss", "nameDisplay": "Kristall Weiss", "breweries": [{"website": "http://www.macandjacks.com/", "established": "1993", "isOrganic": "N", "description": "Mac & Jack\u2019s Brewing Company proudly dedicates itself to preserving a clean environment as a responsible resident in Redmond and to the community at large. From re-using water to providing spent grain to local farmers, all byproducts created here during the brewing process are recycled responsibly. This makes for happy neighbors as well as happy cows!", "statusDisplay": "Verified", "createDate": "2012-01-03 02:42:01", "mailingListUrl": "http://www.macandjacks.com/list.php", "locations": [{"status": "verified", "openToPublic": "Y", "isPrimary": "Y", "id": "pSbibd", "locationTypeDisplay": "Micro Brewery", "inPlanning": "N", "locality": "Redmond", "createDate": "2012-01-03 02:42:01", "streetAddress": "17825 NE 65th St", "postalCode": "98052", "extendedAddress": "b110", "website": "http://www.macandjacks.com/", "statusDisplay": "Verified", "countryIsoCode": "US", "phone": "425-558-9697", "isClosed": "N", "name": "Main Brewery", "latitude": 47.663422, "locationType": "micro", "region": "Washington", "longitude": -122.102388, "updateDate": "2014-07-23 19:11:34", "country": {"displayName": "United States", "name": "UNITED STATES", "isoThree": "USA", "createDate": "2012-01-03 02:41:33", "numberCode": 840, "isoCode": "US"}}], "nameShortDisplay": "Mac & Jacks", "status": "verified", "updateDate": "2015-12-22 15:22:37", "id": "iWV3FQ", "name": "Mac & Jacks Brewing Company"}], "style": {"category": {"createDate": "2012-03-21 20:06:46", "id": 4, "name": "German Origin Ales"}, "ogMin": "1.047", "description": "The aroma and flavor of a Weissbier without yeast is very similar to Weissbier with yeast (Hefeweizen/Hefeweissbier) with the caveat that fruity and phenolic characters are not combined with the yeasty flavor and fuller-bodied mouthfeel of yeast. The phenolic characteristics are often described as clove- or nutmeg-like and can be smoky or even vanilla-like. Banana-like esters are often present. These beers are made with at least 50 percent malted wheat, and hop rates are quite low. Hop flavor and aroma are absent. Weissbier is well attenuated and very highly carbonated, yet its relatively high starting gravity and alcohol content make it a medium- to full-bodied beer. The color is very pale to deep golden. Because the beer has been filtered, yeast is not present. The beer will have no flavor of yeast and a cleaner, drier mouthfeel. The beer should be clear with no chill haze present. No diacetyl should be perceived.", "createDate": "2012-03-21 20:06:46", "ibuMin": "10", "categoryId": 4, "srmMax": "9", "ibuMax": "15", "abvMin": "4.9", "fgMin": "1.008", "updateDate": "2015-04-07 15:29:35", "fgMax": "1.016", "shortName": "Kristallweizen", "abvMax": "5.5", "id": 49, "srmMin": "3", "name": "South German-Style Kristall Weizen / Kristall Weissbier"}, "createDate": "2015-07-24 19:49:40", "updateDate": "2015-07-24 19:49:41", "abv": "5.5", "styleId": 49, "id": "8qMPdr", "statusDisplay": "Verified"}, {"status": "verified", "isOrganic": "N", "statusDisplay": "Verified", "nameDisplay": "Kristall Weiss", "breweries": [{"status": "verified", "isOrganic": "N", "statusDisplay": "Verified", "createDate": "2012-01-03 02:42:16", "locations": [{"inPlanning": "N", "countryIsoCode": "US", "name": "Berwyn", "locality": "Berwyn", "openToPublic": "N", "locationType": "micro", "region": "Illinois", "longitude": -87.791274, "isClosed": "N", "createDate": "2012-01-03 02:42:16", "status": "verified", "updateDate": "2014-07-23 19:11:34", "country": {"displayName": "United States", "name": "UNITED STATES", "isoThree": "USA", "createDate": "2012-01-03 02:41:33", "numberCode": 840, "isoCode": "US"}, "latitude": 41.84329, "isPrimary": "Y", "id": "b2HRQW", "locationTypeDisplay": "Micro Brewery", "statusDisplay": "Verified"}], "nameShortDisplay": "Weinkeller", "updateDate": "2015-12-22 15:02:22", "id": "sAmmqA", "name": "Weinkeller Brewery"}], "createDate": "2012-01-03 02:43:34", "updateDate": "2012-03-22 13:04:51", "id": "VRfOfL", "name": "Kristall Weiss"}, {"status": "verified", "isOrganic": "N", "name": "Kristall Weiss", "nameDisplay": "Kristall Weiss", "breweries": [{"status": "verified", "isOrganic": "N", "statusDisplay": "Verified", "createDate": "2012-01-03 02:42:09", "locations": [{"inPlanning": "N", "countryIsoCode": "US", "name": "Main Brewery", "locality": "Longmont", "openToPublic": "N", "locationType": "micro", "region": "Colorado", "longitude": -105.11511, "country": {"displayName": "United States", "name": "UNITED STATES", "isoThree": "USA", "createDate": "2012-01-03 02:41:33", "numberCode": 840, "isoCode": "US"}, "isClosed": "Y", "latitude": 40.158755, "streetAddress": "1265 Boston Avenue", "createDate": "2012-01-03 02:42:09", "status": "verified", "yearOpened": "1994", "updateDate": "2014-07-23 19:11:34", "postalCode": "80501", "isPrimary": "Y", "id": "4ZdEkN", "locationTypeDisplay": "Micro Brewery", "statusDisplay": "Verified"}], "nameShortDisplay": "Tabernash", "updateDate": "2015-12-22 14:59:46", "id": "BGwxBe", "name": "Tabernash Brewing"}], "style": {"category": {"createDate": "2012-03-21 20:06:46", "id": 4, "name": "German Origin Ales"}, "ogMin": "1.047", "description": "The aroma and flavor of a Weissbier with yeast is decidedly fruity and phenolic. The phenolic characteristics are often described as clove-, nutmeg-like, mildly smoke-like or even vanilla-like. Banana-like esters should be present at low to medium-high levels. These beers are made with at least 50 percent malted wheat, and hop rates are quite low. Hop flavor and aroma are absent or present at very low levels. Weissbier is well attenuated and very highly carbonated and a medium to full bodied beer. The color is very pale to pale amber. Because yeast is present, the beer will have yeast flavor and a characteristically fuller mouthfeel and may be appropriately very cloudy. No diacetyl should be perceived.", "createDate": "2012-03-21 20:06:46", "ibuMin": "10", "categoryId": 4, "srmMax": "9", "ibuMax": "15", "abvMin": "4.9", "fgMin": "1.008", "updateDate": "2015-04-07 15:29:27", "fgMax": "1.016", "shortName": "Hefeweizen", "abvMax": "5.5", "id": 48, "srmMin": "3", "name": "South German-Style Hefeweizen / Hefeweissbier"}, "createDate": "2012-01-03 02:43:34", "updateDate": "2014-10-08 15:03:21", "styleId": 48, "id": "daCbMw", "statusDisplay": "Verified"}, {"status": "verified", "available": {"description": "Available year round as a staple beer.", "id": 1, "name": "Year Round"}, "isOrganic": "N", "description": "As tasty as the other Jacob wheat beers! Crystal clear, full-flavoured and mild.", "statusDisplay": "Verified", "nameDisplay": "Kristall Weissbier", "breweries": [{"website": "http://www.jacob-weissbier.com/", "established": "1758", "isOrganic": "N", "description": "In 1738 the workers of the smelting work in Bodenw\u00f6hr requested permission from Karl Albrecht, Elector of Bavaria, to establish a brewhouse so that they would no longer need to import the brews of somewhat inferior quality from nearby towns.\r\nTwenty years later, in 1758, the first master brewer, Peter Still, ultimately was allowed to begin his work beside the Hammersee.\r\nIn 1884, Johann Baptist Jacob (the great-grandfather of present-day owner Marcus Jacob) acquired the company. The two generations of the Jacob family that followed upheld his pioneering spirit and iron will to maintain the business to the benefit of quality and the employees.\r\n\r\nReaping the rewards: Jacob wheat beer has been awarded the gold seal by German Agricultural Society (DLG) every year since 1994.", "statusDisplay": "Verified", "createDate": "2016-04-06 11:41:11", "locations": [{"status": "verified", "openToPublic": "Y", "isPrimary": "Y", "id": "5Sy253", "locationTypeDisplay": "Production Facility", "inPlanning": "N", "locality": "Bodenw\u00f6hr", "createDate": "2016-04-06 11:45:02", "streetAddress": "Ludwigsheide 2", "postalCode": "92439", "website": "http://www.jacob-weissbier.com/", "statusDisplay": "Verified", "countryIsoCode": "DE", "phone": "+49 9434 / 9410-0", "isClosed": "N", "name": "Main Facility", "latitude": 49.3020018, "locationType": "production", "region": "Bavaria", "longitude": 12.2871558, "updateDate": "2016-04-18 17:59:45", "country": {"displayName": "Germany", "name": "GERMANY", "isoThree": "DEU", "createDate": "2012-01-03 02:41:33", "numberCode": 276, "isoCode": "DE"}}], "nameShortDisplay": "Familienbrauerei Jacob", "status": "verified", "updateDate": "2016-04-18 17:46:22", "images": {"large": "https://s3.amazonaws.com/brewerydbapi/brewery/i60pmF/upload_1TJtU9-large.png", "medium": "https://s3.amazonaws.com/brewerydbapi/brewery/i60pmF/upload_1TJtU9-medium.png", "squareMedium": "https://s3.amazonaws.com/brewerydbapi/brewery/i60pmF/upload_1TJtU9-squareMedium.png", "squareLarge": "https://s3.amazonaws.com/brewerydbapi/brewery/i60pmF/upload_1TJtU9-squareLarge.png", "icon": "https://s3.amazonaws.com/brewerydbapi/brewery/i60pmF/upload_1TJtU9-icon.png"}, "id": "i60pmF", "name": "Familienbrauerei Jacob"}], "style": {"category": {"createDate": "2012-03-21 20:06:46", "id": 4, "name": "German Origin Ales"}, "ogMin": "1.047", "description": "The aroma and flavor of a Weissbier without yeast is very similar to Weissbier with yeast (Hefeweizen/Hefeweissbier) with the caveat that fruity and phenolic characters are not combined with the yeasty flavor and fuller-bodied mouthfeel of yeast. The phenolic characteristics are often described as clove- or nutmeg-like and can be smoky or even vanilla-like. Banana-like esters are often present. These beers are made with at least 50 percent malted wheat, and hop rates are quite low. Hop flavor and aroma are absent. Weissbier is well attenuated and very highly carbonated, yet its relatively high starting gravity and alcohol content make it a medium- to full-bodied beer. The color is very pale to deep golden. Because the beer has been filtered, yeast is not present. The beer will have no flavor of yeast and a cleaner, drier mouthfeel. The beer should be clear with no chill haze present. No diacetyl should be perceived.", "createDate": "2012-03-21 20:06:46", "ibuMin": "10", "categoryId": 4, "srmMax": "9", "ibuMax": "15", "abvMin": "4.9", "fgMin": "1.008", "updateDate": "2015-04-07 15:29:35", "fgMax": "1.016", "shortName": "Kristallweizen", "abvMax": "5.5", "id": 49, "srmMin": "3", "name": "South German-Style Kristall Weizen / Kristall Weissbier"}, "name": "Kristall Weissbier", "glass": {"createDate": "2012-01-03 02:41:33", "id": 9, "name": "Weizen"}, "createDate": "2016-04-06 11:56:02", "updateDate": "2016-04-18 17:59:48", "abv": "5.3", "styleId": 49, "availableId": 1, "id": "DP24so", "glasswareId": 9}, {"status": "verified", "available": {"description": "Available year round as a staple beer.", "id": 1, "name": "Year Round"}, "isOrganic": "N", "breweries": [{"website": "http://www.weihenstephaner.de/", "established": "1040", "isOrganic": "N", "description": "The Bavarian State Brewery Weihenstephan, founded in 1040, is the oldest existing brewery in the world. As directed by operation of Bavaria it is run as a modern company, which brews beers of the highest quality and successfully sells worldwide in over 40 countries. The unique combination of tradition and science gives the brewer the quality standard \"premium bavaricum\" and national and international awards for their \"Weihenstephan beers.\"", "statusDisplay": "Verified", "createDate": "2012-01-03 02:41:45", "locations": [{"status": "verified", "openToPublic": "Y", "isPrimary": "Y", "hoursOfOperation": "Mon: 6:00 am - 6:00 pm\r\nTue: 5:00 am - 6:00 am, 3:00 pm - 11:00 pm\r\nWed: 6:00 am - 7:00 pm\r\nThu - Fri: 5:00 am - 10:00 pm\r\nSat - Sun: 11:00 am - 10:00 pm", "locationTypeDisplay": "Micro Brewery", "inPlanning": "N", "locality": "Wissenschaftszentrum Weihenstephan", "createDate": "2012-01-03 02:41:45", "id": "SZiCtP", "streetAddress": "Alte Akademie 2", "postalCode": "85354", "website": "http://www.weihenstephaner.de/", "statusDisplay": "Verified", "countryIsoCode": "DE", "phone": "49-(0)8161-/-536-0", "isClosed": "N", "name": "Main Brewery", "latitude": 48.395173, "locationType": "micro", "region": "Freising", "longitude": 11.72903, "updateDate": "2014-07-23 19:11:34", "country": {"displayName": "Germany", "name": "GERMANY", "isoThree": "DEU", "createDate": "2012-01-03 02:41:33", "numberCode": 276, "isoCode": "DE"}}], "nameShortDisplay": "Weihenstephaner", "status": "verified", "updateDate": "2016-06-02 17:30:37", "images": {"large": "https://s3.amazonaws.com/brewerydbapi/brewery/NzbBOK/upload_jj17wM-large.png", "medium": "https://s3.amazonaws.com/brewerydbapi/brewery/NzbBOK/upload_jj17wM-medium.png", "squareMedium": "https://s3.amazonaws.com/brewerydbapi/brewery/NzbBOK/upload_jj17wM-squareMedium.png", "squareLarge": "https://s3.amazonaws.com/brewerydbapi/brewery/NzbBOK/upload_jj17wM-squareLarge.png", "icon": "https://s3.amazonaws.com/brewerydbapi/brewery/NzbBOK/upload_jj17wM-icon.png"}, "id": "NzbBOK", "name": "Bayerische Staatsbrauerei Weihenstephan"}], "description": "In our golden-yellow crystal-clear wheat beer the fresh citrus flavour harmonises very well with spicy banana notes. The fine sparkling gives it a tangy and animated appearance. Throughout summer and winter, it\u2019s a prickling experience. It goes well with fish, seafood, white meat or it can be enjoyed as an aperitif. Brewed according to our centuries-old brewing tradition on the Weihenstephan hill.", "statusDisplay": "Verified", "nameDisplay": "Kristall Weissbier", "labels": {"large": "https://s3.amazonaws.com/brewerydbapi/beer/ik6B7t/upload_vR6WGr-large.png", "medium": "https://s3.amazonaws.com/brewerydbapi/beer/ik6B7t/upload_vR6WGr-medium.png", "icon": "https://s3.amazonaws.com/brewerydbapi/beer/ik6B7t/upload_vR6WGr-icon.png"}, "style": {"category": {"createDate": "2012-03-21 20:06:46", "id": 4, "name": "German Origin Ales"}, "ogMin": "1.047", "description": "The aroma and flavor of a Weissbier with yeast is decidedly fruity and phenolic. The phenolic characteristics are often described as clove-, nutmeg-like, mildly smoke-like or even vanilla-like. Banana-like esters should be present at low to medium-high levels. These beers are made with at least 50 percent malted wheat, and hop rates are quite low. Hop flavor and aroma are absent or present at very low levels. Weissbier is well attenuated and very highly carbonated and a medium to full bodied beer. The color is very pale to pale amber. Because yeast is present, the beer will have yeast flavor and a characteristically fuller mouthfeel and may be appropriately very cloudy. No diacetyl should be perceived.", "createDate": "2012-03-21 20:06:46", "ibuMin": "10", "categoryId": 4, "srmMax": "9", "ibuMax": "15", "abvMin": "4.9", "fgMin": "1.008", "updateDate": "2015-04-07 15:29:27", "fgMax": "1.016", "shortName": "Hefeweizen", "abvMax": "5.5", "id": 48, "srmMin": "3", "name": "South German-Style Hefeweizen / Hefeweissbier"}, "name": "Kristall Weissbier", "servingTemperature": "cool", "glass": {"createDate": "2012-01-03 02:41:33", "id": 9, "name": "Weizen"}, "servingTemperatureDisplay": "Cool - (8-12C/45-54F)", "createDate": "2012-01-03 02:43:34", "updateDate": "2015-12-15 22:05:07", "abv": "5.4", "styleId": 48, "availableId": 1, "id": "ik6B7t", "glasswareId": 9}, {"status": "verified", "isOrganic": "N", "name": "Kristall Weisse", "nameDisplay": "Kristall Weisse", "breweries": [{"website": "http://www.hopfweisse.de/", "status": "verified", "isOrganic": "N", "name": "Weissbierbrauerei Hopf", "createDate": "2012-01-03 02:42:12", "locations": [{"inPlanning": "N", "countryIsoCode": "DE", "name": "Main Brewery", "locality": "Miesbach", "openToPublic": "Y", "locationType": "micro", "region": "Bayern", "longitude": 11.83114, "isClosed": "N", "phone": "49-(0)8025-/-2959-0", "streetAddress": "Schtzenstrae 8-10", "createDate": "2012-01-03 02:42:12", "status": "verified", "updateDate": "2014-07-23 19:11:34", "country": {"displayName": "Germany", "name": "GERMANY", "isoThree": "DEU", "createDate": "2012-01-03 02:41:33", "numberCode": 276, "isoCode": "DE"}, "latitude": 47.79396, "isPrimary": "Y", "id": "4BmCZn", "locationTypeDisplay": "Micro Brewery", "statusDisplay": "Verified"}], "nameShortDisplay": "Weissbierbrauerei Hopf", "updateDate": "2015-12-22 15:02:23", "id": "UUVazb", "statusDisplay": "Verified"}], "style": {"category": {"createDate": "2012-03-21 20:06:46", "id": 11, "name": "Hybrid/mixed Beer"}, "ogMin": "1.036", "description": "This beer can be made using either ale or lager yeast. It can be brewed with 30 to 75 percent wheat malt, and hop rates may be low to medium. Hop characters may be light to moderate in bitterness, flavor and aroma. Fruity-estery aroma and flavor are typical but at low levels however, phenolic, clove-like characteristics should not be perceived. Color is usually straw to light amber, and the body should be light to medium in character. Diacetyl should not be perceived. Because this style is served with yeast the character should portray a full yeasty mouthfeel and appear hazy to very cloudy. Chill haze is also acceptable. Yeast flavor and aroma should be low to medium but not overpowering the balance and character of malt and hops. These beers are typically served with the yeast in the bottle, and are cloudy when served.", "createDate": "2012-03-21 20:06:46", "ibuMin": "10", "categoryId": 11, "srmMax": "10", "ibuMax": "35", "abvMin": "3.5", "fgMin": "1.006", "updateDate": "2015-04-07 15:42:48", "fgMax": "1.018", "shortName": "Wheat Ale", "abvMax": "5.5", "id": 112, "srmMin": "4", "name": "Light American Wheat Ale or Lager with Yeast"}, "foodPairings": "Appetizers, soups, fish and seafood with vegetables, mixed salads with light dressing.", "createDate": "2015-04-02 20:39:55", "updateDate": "2015-04-02 20:39:55", "abv": "5.3", "styleId": 112, "id": "AEUDXU", "statusDisplay": "Verified"}, {"status": "verified", "isOrganic": "N", "name": "Kristall Weizen", "nameDisplay": "Kristall Weizen", "breweries": [{"website": "http://www.fearrington.com/eateries/roost-beer-garden/", "status": "verified", "isOrganic": "N", "name": "Roost Brewery", "createDate": "2012-01-03 02:42:07", "locations": [{"inPlanning": "N", "countryIsoCode": "US", "name": "Main Brewery", "locality": "Campbell", "openToPublic": "Y", "locationType": "micro", "region": "California", "longitude": -121.946236, "isClosed": "N", "phone": "1-408-866-2699", "streetAddress": "200 East Campbell Avenue", "createDate": "2012-01-03 02:42:07", "status": "verified", "updateDate": "2014-07-23 19:11:34", "country": {"displayName": "United States", "name": "UNITED STATES", "isoThree": "USA", "createDate": "2012-01-03 02:41:33", "numberCode": 840, "isoCode": "US"}, "postalCode": "95008", "latitude": 37.286888, "isPrimary": "Y", "id": "rdrfPw", "locationTypeDisplay": "Micro Brewery", "statusDisplay": "Verified"}], "nameShortDisplay": "Roost", "updateDate": "2015-12-22 14:56:18", "id": "leClRi", "statusDisplay": "Verified"}], "style": {"category": {"createDate": "2012-03-21 20:06:46", "id": 8, "name": "North American Lager"}, "ogMin": "1.044", "description": "This style has low malt (and adjunct) sweetness, is medium bodied, and should contain no or a low percentage (less than 25%) of adjuncts. Color may be light straw to golden. Alcohol content and bitterness may also be greater. Hop aroma and flavor is low or negligible. Light fruity esters are acceptable. Chill haze and diacetyl should be absent. Note: Some beers marketed as \"premium\" (based on price) may not fit this definition.", "createDate": "2012-03-21 20:06:46", "ibuMin": "6", "categoryId": 8, "srmMax": "6", "ibuMax": "15", "abvMin": "4.3", "fgMin": "1.01", "updateDate": "2015-04-07 15:40:04", "fgMax": "1.014", "shortName": "American Premium Lager", "abvMax": "5", "id": 97, "srmMin": "2", "name": "American-Style Premium Lager"}, "createDate": "2012-01-03 02:43:34", "updateDate": "2012-03-22 13:04:32", "styleId": 97, "id": "hWTok2", "statusDisplay": "Verified"}, {"status": "verified", "isOrganic": "N", "name": "Kristall Weizen", "nameDisplay": "Kristall Weizen", "breweries": [{"website": "http://www.ruppaner.de/", "status": "verified", "isOrganic": "N", "name": "Ruppaner-Brauerei", "createDate": "2012-01-03 02:42:07", "locations": [{"inPlanning": "N", "countryIsoCode": "DE", "name": "Main Brewery", "locality": "Konstanz", "openToPublic": "Y", "locationType": "micro", "region": "Baden-Wrttemberg", "longitude": 9.2079992, "isClosed": "N", "phone": "49-(0)7531-/-9373-0", "streetAddress": "Hoheneggstrae 41-51", "createDate": "2012-01-03 02:42:07", "status": "verified", "updateDate": "2014-07-23 19:11:34", "country": {"displayName": "Germany", "name": "GERMANY", "isoThree": "DEU", "createDate": "2012-01-03 02:41:33", "numberCode": 276, "isoCode": "DE"}, "latitude": 47.6855422, "isPrimary": "Y", "id": "4xUGux", "locationTypeDisplay": "Micro Brewery", "statusDisplay": "Verified"}], "nameShortDisplay": "Ruppaner-Brauerei", "updateDate": "2015-12-22 14:56:28", "id": "KVi2od", "statusDisplay": "Verified"}], "style": {"category": {"createDate": "2012-03-21 20:06:46", "id": 4, "name": "German Origin Ales"}, "ogMin": "1.047", "description": "The aroma and flavor of a Weissbier without yeast is very similar to Weissbier with yeast (Hefeweizen/Hefeweissbier) with the caveat that fruity and phenolic characters are not combined with the yeasty flavor and fuller-bodied mouthfeel of yeast. The phenolic characteristics are often described as clove- or nutmeg-like and can be smoky or even vanilla-like. Banana-like esters are often present. These beers are made with at least 50 percent malted wheat, and hop rates are quite low. Hop flavor and aroma are absent. Weissbier is well attenuated and very highly carbonated, yet its relatively high starting gravity and alcohol content make it a medium- to full-bodied beer. The color is very pale to deep golden. Because the beer has been filtered, yeast is not present. The beer will have no flavor of yeast and a cleaner, drier mouthfeel. The beer should be clear with no chill haze present. No diacetyl should be perceived.", "createDate": "2012-03-21 20:06:46", "ibuMin": "10", "categoryId": 4, "srmMax": "9", "ibuMax": "15", "abvMin": "4.9", "fgMin": "1.008", "updateDate": "2015-04-07 15:29:35", "fgMax": "1.016", "shortName": "Kristallweizen", "abvMax": "5.5", "id": 49, "srmMin": "3", "name": "South German-Style Kristall Weizen / Kristall Weissbier"}, "createDate": "2012-01-03 02:43:34", "updateDate": "2015-05-14 18:33:18", "styleId": 49, "id": "JSLait", "statusDisplay": "Verified"}, {"status": "verified", "isOrganic": "N", "breweries": [{"website": "http://www.tucher.de", "established": "1672", "isOrganic": "N", "name": "Tucher Brau", "createDate": "2012-01-03 02:42:11", "locations": [{"inPlanning": "N", "countryIsoCode": "DE", "name": "Main Brewery", "locality": "Nrnberg", "openToPublic": "Y", "locationType": "micro", "region": "Bayern", "longitude": 11.0847271, "isClosed": "N", "phone": "49-(0)911-/-9776-0", "streetAddress": "Schillerstrae 14", "createDate": "2012-01-03 02:42:11", "status": "verified", "updateDate": "2014-07-23 19:11:34", "country": {"displayName": "Germany", "name": "GERMANY", "isoThree": "DEU", "createDate": "2012-01-03 02:41:33", "numberCode": 276, "isoCode": "DE"}, "latitude": 49.4644312, "isPrimary": "Y", "id": "u138JX", "locationTypeDisplay": "Micro Brewery", "statusDisplay": "Verified"}], "nameShortDisplay": "Tucher Brau", "status": "verified", "updateDate": "2015-12-22 15:01:11", "id": "GMJUJm", "statusDisplay": "Verified"}], "name": "Kristall Weizen", "nameDisplay": "Kristall Weizen", "labels": {"large": "https://s3.amazonaws.com/brewerydbapi/beer/CntJ7G/upload_avhAQV-large.png", "medium": "https://s3.amazonaws.com/brewerydbapi/beer/CntJ7G/upload_avhAQV-medium.png", "icon": "https://s3.amazonaws.com/brewerydbapi/beer/CntJ7G/upload_avhAQV-icon.png"}, "style": {"category": {"createDate": "2012-03-21 20:06:46", "id": 4, "name": "German Origin Ales"}, "ogMin": "1.047", "description": "The aroma and flavor of a Weissbier without yeast is very similar to Weissbier with yeast (Hefeweizen/Hefeweissbier) with the caveat that fruity and phenolic characters are not combined with the yeasty flavor and fuller-bodied mouthfeel of yeast. The phenolic characteristics are often described as clove- or nutmeg-like and can be smoky or even vanilla-like. Banana-like esters are often present. These beers are made with at least 50 percent malted wheat, and hop rates are quite low. Hop flavor and aroma are absent. Weissbier is well attenuated and very highly carbonated, yet its relatively high starting gravity and alcohol content make it a medium- to full-bodied beer. The color is very pale to deep golden. Because the beer has been filtered, yeast is not present. The beer will have no flavor of yeast and a cleaner, drier mouthfeel. The beer should be clear with no chill haze present. No diacetyl should be perceived.", "createDate": "2012-03-21 20:06:46", "ibuMin": "10", "categoryId": 4, "srmMax": "9", "ibuMax": "15", "abvMin": "4.9", "fgMin": "1.008", "updateDate": "2015-04-07 15:29:35", "fgMax": "1.016", "shortName": "Kristallweizen", "abvMax": "5.5", "id": 49, "srmMin": "3", "name": "South German-Style Kristall Weizen / Kristall Weissbier"}, "createDate": "2012-01-03 02:43:34", "updateDate": "2015-12-15 22:39:38", "abv": "5.3", "styleId": 49, "id": "CntJ7G", "statusDisplay": "Verified"}, {"status": "verified", "available": {"description": "Available at the same time of year, every year.", "id": 4, "name": "Seasonal"}, "isOrganic": "N", "description": "Literally \"crystal wheat.\" A Kristall Weizen is a filtered pale Weissbier. It pours \"crystal\"-clear rather than yeast-hazey.   Propeller Kristall Weizen is made with special Weizen yeast, German Noble hops and equal amounts of barley and wheat malts. Like its Hefeweizen counterpart, Kristall Weizen develops a richly-textured, firm, white head in the glass. Very light, spritzy-effervescent and refreshing on the palate, with creamy texture and gentle, lightly fruity character, it finishes with a touch of dryness. Propeller Kristall Weizen pairs well with summer heat and good times... Prost.", "name": "Kristall Weizen", "glass": {"createDate": "2012-01-03 02:41:33", "id": 5, "name": "Pint"}, "nameDisplay": "Kristall Weizen", "breweries": [{"website": "http://www.drinkpropeller.ca/", "established": "1997", "isOrganic": "N", "description": "Propeller Brewing Company is Nova Scotia\u2019s best selling microbrewery. Our International award winning, all-natural, British-style ales and lagers are available at liquor stores, fine bars and restaurants throughout Nova Scotia. Ask for an Extra Special Bitter or an India Pale Ale, the Province's two best selling micro brewed beers, or drop by the downtown brewery and retail store to sample brewery fresh craft ales.", "statusDisplay": "Verified", "createDate": "2012-01-03 02:42:06", "locations": [{"status": "verified", "openToPublic": "Y", "isPrimary": "Y", "id": "n3kdur", "locationTypeDisplay": "Micro Brewery", "inPlanning": "N", "locality": "Halifax", "createDate": "2012-01-03 02:42:06", "streetAddress": "2015 Gottingen Street", "postalCode": "B3K 3B1", "website": "http://www.drinkpropeller.ca/", "statusDisplay": "Verified", "yearOpened": "1997", "countryIsoCode": "CA", "phone": "902-422-7767", "isClosed": "N", "name": "Main Brewery", "latitude": 44.6508598, "locationType": "micro", "region": "Nova Scotia", "longitude": -63.5814347, "updateDate": "2014-07-23 19:11:34", "country": {"displayName": "Canada", "name": "CANADA", "isoThree": "CAN", "createDate": "2012-01-03 02:41:33", "numberCode": 124, "isoCode": "CA"}}], "nameShortDisplay": "Propeller", "status": "verified", "updateDate": "2015-12-22 15:07:14", "images": {"large": "https://s3.amazonaws.com/brewerydbapi/brewery/1L0pqK/upload_3yxair-large.png", "medium": "https://s3.amazonaws.com/brewerydbapi/brewery/1L0pqK/upload_3yxair-medium.png", "squareMedium": "https://s3.amazonaws.com/brewerydbapi/brewery/1L0pqK/upload_3yxair-squareMedium.png", "squareLarge": "https://s3.amazonaws.com/brewerydbapi/brewery/1L0pqK/upload_3yxair-squareLarge.png", "icon": "https://s3.amazonaws.com/brewerydbapi/brewery/1L0pqK/upload_3yxair-icon.png"}, "id": "1L0pqK", "name": "Propeller Brewery"}], "style": {"category": {"createDate": "2012-03-21 20:06:46", "id": 4, "name": "German Origin Ales"}, "ogMin": "1.047", "description": "The aroma and flavor of a Weissbier with yeast is decidedly fruity and phenolic. The phenolic characteristics are often described as clove-, nutmeg-like, mildly smoke-like or even vanilla-like. Banana-like esters should be present at low to medium-high levels. These beers are made with at least 50 percent malted wheat, and hop rates are quite low. Hop flavor and aroma are absent or present at very low levels. Weissbier is well attenuated and very highly carbonated and a medium to full bodied beer. The color is very pale to pale amber. Because yeast is present, the beer will have yeast flavor and a characteristically fuller mouthfeel and may be appropriately very cloudy. No diacetyl should be perceived.", "createDate": "2012-03-21 20:06:46", "ibuMin": "10", "categoryId": 4, "srmMax": "9", "ibuMax": "15", "abvMin": "4.9", "fgMin": "1.008", "updateDate": "2015-04-07 15:29:27", "fgMax": "1.016", "shortName": "Hefeweizen", "abvMax": "5.5", "id": 48, "srmMin": "3", "name": "South German-Style Hefeweizen / Hefeweissbier"}, "ibu": "12", "statusDisplay": "Verified", "createDate": "2012-01-03 02:43:34", "updateDate": "2012-03-22 13:05:20", "styleId": 48, "availableId": 4, "id": "GwKI6h", "glasswareId": 5}, {"status": "verified", "isOrganic": "N", "statusDisplay": "Verified", "nameDisplay": "Kristall-Pilsner", "breweries": [{"website": "http://www.lammbrauerei.de/", "status": "verified", "isOrganic": "N", "name": "Lammbrauerei Untergr\u00f6ningen", "createDate": "2012-08-07 10:17:07", "locations": [{"inPlanning": "N", "countryIsoCode": "DE", "name": "Main Brewery", "openToPublic": "Y", "locationType": "micro", "region": "Untergr\u00f6ningen", "longitude": -97.095605, "isClosed": "N", "latitude": 34.044864, "streetAddress": "Haller Strasse 2", "createDate": "2012-08-15 17:20:36", "status": "verified", "updateDate": "2014-07-23 19:11:34", "country": {"displayName": "Germany", "name": "GERMANY", "isoThree": "DEU", "createDate": "2012-01-03 02:41:33", "numberCode": 276, "isoCode": "DE"}, "postalCode": "73453", "isPrimary": "Y", "id": "D10eF1", "locationTypeDisplay": "Micro Brewery", "statusDisplay": "Verified"}], "nameShortDisplay": "Lammbrauerei Untergr\u00f6ningen", "updateDate": "2015-12-22 15:31:27", "id": "mxXzUr", "statusDisplay": "Verified"}], "createDate": "2012-08-12 12:02:27", "updateDate": "2012-08-17 17:07:50", "id": "VMP249", "name": "Kristall-Pilsner"}, {"status": "verified", "isOrganic": "N", "breweries": [{"website": "http://www.vonjakobvineyard.com/", "status": "verified", "isOrganic": "N", "description": "As Von Jakob Vineyard, we have brought exceptional wines to the Southern Illinois area and beyond for over 15 years. Now, we are excited to introduce Von Jakob Brewery, complete with hand-crafted brews, made exclusively at our Orchard location in Alto Pass, Illinois.\r\n\r\nOffering eight styles of beer ranging from our crisp, clean, lightly-hopped American Pilsner to our rich, dark Stout, you are sure to find a beer that delights your palate. Or, if you are having trouble choosing just one, we offer a flight of all eight delicious beers. We also have a great selection of domestic beers as well as premium beers from around the world for your enjoyment.\r\n\r\nAnd for our wine enthusiasts out there, do not worry \u2013 our winery isn\u2019t going anywhere. We just thought we would offer you a different libation of choice, should you want to explore it.\r\n\r\nWe sincerely thank you for your support over the years, and we welcome you to come and experience this next adventure with us!", "statusDisplay": "Verified", "createDate": "2012-01-03 02:42:12", "locations": [{"status": "verified", "openToPublic": "Y", "isPrimary": "Y", "hoursOfOperation": "Mon - Sat: 10:00 am - 6:00 pm\r\nSun: 12:00 pm - 6:00 pm", "locationTypeDisplay": "Micro Brewery", "inPlanning": "N", "locality": "Pomona, IL", "createDate": "2012-01-03 02:42:12", "id": "uKN7rI", "streetAddress": "1309 Sadler Road", "postalCode": "62975", "website": "http://www.vonjakobvineyard.com/", "statusDisplay": "Verified", "countryIsoCode": "US", "phone": "618-893-4500", "isClosed": "N", "name": "Main Brewery", "latitude": 37.6131085, "locationType": "micro", "region": "Illinois", "longitude": -89.3509966, "updateDate": "2014-07-23 19:11:34", "country": {"displayName": "United States", "name": "UNITED STATES", "isoThree": "USA", "createDate": "2012-01-03 02:41:33", "numberCode": 840, "isoCode": "US"}}], "nameShortDisplay": "Von Jakob", "updateDate": "2015-12-22 15:27:21", "id": "waA7IQ", "name": "Von Jakob Brewery"}], "name": "Kristallweizen", "statusDisplay": "Verified", "nameDisplay": "Kristallweizen", "labels": {"large": "https://s3.amazonaws.com/brewerydbapi/beer/F2EwIG/upload_qgDVjf-large.png", "medium": "https://s3.amazonaws.com/brewerydbapi/beer/F2EwIG/upload_qgDVjf-medium.png", "icon": "https://s3.amazonaws.com/brewerydbapi/beer/F2EwIG/upload_qgDVjf-icon.png"}, "style": {"category": {"createDate": "2012-03-21 20:06:46", "id": 4, "name": "German Origin Ales"}, "ogMin": "1.047", "description": "The aroma and flavor of a Weissbier with yeast is decidedly fruity and phenolic. The phenolic characteristics are often described as clove-, nutmeg-like, mildly smoke-like or even vanilla-like. Banana-like esters should be present at low to medium-high levels. These beers are made with at least 50 percent malted wheat, and hop rates are quite low. Hop flavor and aroma are absent or present at very low levels. Weissbier is well attenuated and very highly carbonated and a medium to full bodied beer. The color is very pale to pale amber. Because yeast is present, the beer will have yeast flavor and a characteristically fuller mouthfeel and may be appropriately very cloudy. No diacetyl should be perceived.", "createDate": "2012-03-21 20:06:46", "ibuMin": "10", "categoryId": 4, "srmMax": "9", "ibuMax": "15", "abvMin": "4.9", "fgMin": "1.008", "updateDate": "2015-04-07 15:29:27", "fgMax": "1.016", "shortName": "Hefeweizen", "abvMax": "5.5", "id": 48, "srmMin": "3", "name": "South German-Style Hefeweizen / Hefeweissbier"}, "glass": {"createDate": "2012-01-03 02:41:33", "id": 9, "name": "Weizen"}, "createDate": "2012-01-03 02:43:34", "updateDate": "2015-12-16 14:19:49", "styleId": 48, "id": "F2EwIG", "glasswareId": 9}, {"status": "verified", "isOrganic": "N", "name": "Kristallweizen", "nameDisplay": "Kristallweizen", "breweries": [{"website": "http://soundbrewery.com", "established": "2010", "isOrganic": "N", "description": "Our tasting room is located inside the brewery complete with all the sounds, aromas, sights and sensations of a working production brewery. We have up to 11 of our beers on tap for $4/glass as well as non-alcoholic, small-batch Ginger Ale made right here in the brewery.\r\n\r\nWe have snack food such as smoked salmon and cheese from Crimson Cove Smokehouse, cookies from Mirracole Morsels and peanuts from CB's Nuts. If you have a big appetite, you are welcome to bring in food of your own or order something for delivery while you are here.\r\n\r\nChildren are welcome in our tasting room.", "statusDisplay": "Verified", "createDate": "2012-12-21 18:06:03", "locations": [{"openToPublic": "Y", "isPrimary": "Y", "hoursOfOperation": "Mon:  2:00pm - 9:00pm\nTue:  2:00pm - 9:00pm\nWed:  2:00pm - 9:00pm\nThu:  2:00pm - 9:00pm\nFri:  2:00pm - 9:00pm\nSat:  12:00pm - 9:00pm\nSun:  12:00pm - 7:00pm\n\n", "locationTypeDisplay": "Micro Brewery", "inPlanning": "N", "locality": "Poulsbo", "createDate": "2012-12-21 18:08:50", "id": "24ZVdb", "streetAddress": "650 NW Bovela Ln, Ste #3", "postalCode": "98370", "status": "verified", "statusDisplay": "Verified", "countryIsoCode": "US", "phone": "(360) 930-8696", "isClosed": "N", "name": "Sound Brewery", "latitude": 47.7398904, "locationType": "micro", "region": "Washington", "longitude": -122.6573953, "updateDate": "2015-01-07 14:30:56", "country": {"displayName": "United States", "name": "UNITED STATES", "isoThree": "USA", "createDate": "2012-01-03 02:41:33", "numberCode": 840, "isoCode": "US"}}], "nameShortDisplay": "Sound", "status": "verified", "updateDate": "2015-12-22 15:39:34", "images": {"large": "https://s3.amazonaws.com/brewerydbapi/brewery/72XZJG/upload_1z2u1F-large.png", "medium": "https://s3.amazonaws.com/brewerydbapi/brewery/72XZJG/upload_1z2u1F-medium.png", "squareMedium": "https://s3.amazonaws.com/brewerydbapi/brewery/72XZJG/upload_1z2u1F-squareMedium.png", "squareLarge": "https://s3.amazonaws.com/brewerydbapi/brewery/72XZJG/upload_1z2u1F-squareLarge.png", "icon": "https://s3.amazonaws.com/brewerydbapi/brewery/72XZJG/upload_1z2u1F-icon.png"}, "id": "72XZJG", "name": "Sound Brewery"}], "style": {"category": {"createDate": "2012-03-21 20:06:46", "id": 4, "name": "German Origin Ales"}, "ogMin": "1.047", "description": "The aroma and flavor of a Weissbier without yeast is very similar to Weissbier with yeast (Hefeweizen/Hefeweissbier) with the caveat that fruity and phenolic characters are not combined with the yeasty flavor and fuller-bodied mouthfeel of yeast. The phenolic characteristics are often described as clove- or nutmeg-like and can be smoky or even vanilla-like. Banana-like esters are often present. These beers are made with at least 50 percent malted wheat, and hop rates are quite low. Hop flavor and aroma are absent. Weissbier is well attenuated and very highly carbonated, yet its relatively high starting gravity and alcohol content make it a medium- to full-bodied beer. The color is very pale to deep golden. Because the beer has been filtered, yeast is not present. The beer will have no flavor of yeast and a cleaner, drier mouthfeel. The beer should be clear with no chill haze present. No diacetyl should be perceived.", "createDate": "2012-03-21 20:06:46", "ibuMin": "10", "categoryId": 4, "srmMax": "9", "ibuMax": "15", "abvMin": "4.9", "fgMin": "1.008", "updateDate": "2015-04-07 15:29:35", "fgMax": "1.016", "shortName": "Kristallweizen", "abvMax": "5.5", "id": 49, "srmMin": "3", "name": "South German-Style Kristall Weizen / Kristall Weissbier"}, "createDate": "2012-12-21 18:48:50", "updateDate": "2012-12-21 18:48:50", "abv": "5", "styleId": 49, "id": "cFsW7l", "statusDisplay": "Verified"}, {"status": "verified", "isOrganic": "N", "description": "This is a Belgian Blonde Ale and a strong one at that. Our recipe incorporates plenty of Belgian 2 row malt and cane sugar to maximize the fermentables for the Belgian Abbey style yeast which yields an ABV above 8%, if you're not careful you'll end up like Superman when he's around a radioactive piece of his former home! BJCP guidelines describe this style as a moderate-strength golden ale that has a subtle Belgian complexity, slightly sweet flavor, and dry finish. As for the origin of the name, if you know or get a chance to meet the Brewmaster's wife, Kristie, ask her, but the name pretty much says it all, Kristie's Kryptonite!", "statusDisplay": "Verified", "nameDisplay": "Kristie's Kryptonite", "breweries": [{"website": "http://www.deslogetown.com", "established": "2015", "isOrganic": "N", "description": "Founded by Greg and Kristie Camp, Deslogetown Brewery started in 2009 as a simple homebrewing hobby in a basement on the west side of Desloge, Missouri.  Back in the area's formative years as a lead mining boomtown, Deslogetown referred to the company town that formed around the Desloge Consolidated Lead Mining Company.  While the lead mines are just a part of our area's history, the spirit of creating something with your own hands and hard work lives on.\r\n\r\nSo what happens when a couple of homebrewers get together with an accomplished vineyard and winery? The Ale House at St. Francois Winery! Thanks to Edward \"Skip\" Daugherty, owner/operator of St. Francois Winery, the dream of not just bringing local, handcrafted wines to the public, but local, handcrafted beer as well is a reality.\r\n\r\nToday, the Deslogetown Brewery seeks to provide approachable craft brews without all the fuss - instead we hope to expand your beer palate with a beer that you will find delicious and refreshing.\r\n\r\n\u200bOpen FRIDAY 4pm-7pm\r\nSATURDAY 1pm-7pm\r\nSUNDAY 1pm-5pm\r\n1669 Pine Ridge Trail, off Highway 32, between Park Hills and Bismarck", "statusDisplay": "Verified", "createDate": "2015-05-05 00:53:37", "locations": [{"status": "verified", "openToPublic": "Y", "isPrimary": "Y", "id": "zEWBBt", "locationTypeDisplay": "Brewpub", "inPlanning": "N", "locality": "Park Hills", "createDate": "2015-05-05 15:51:33", "streetAddress": "1669 Pine Ridge Trail", "postalCode": "63601", "website": "http://www.deslogetown.com", "statusDisplay": "Verified", "yearOpened": "2015", "countryIsoCode": "US", "phone": "1.5734314294", "isClosed": "N", "name": "Main Brewery", "latitude": 37.832294, "locationType": "brewpub", "region": "Missouri", "longitude": -90.563307, "updateDate": "2016-09-20 15:34:58", "country": {"displayName": "United States", "name": "UNITED STATES", "isoThree": "USA", "createDate": "2012-01-03 02:41:33", "numberCode": 840, "isoCode": "US"}}], "nameShortDisplay": "Deslogetown", "status": "verified", "updateDate": "2015-12-22 16:08:27", "images": {"large": "https://s3.amazonaws.com/brewerydbapi/brewery/ajfUAW/upload_vpUB32-large.png", "medium": "https://s3.amazonaws.com/brewerydbapi/brewery/ajfUAW/upload_vpUB32-medium.png", "squareMedium": "https://s3.amazonaws.com/brewerydbapi/brewery/ajfUAW/upload_vpUB32-squareMedium.png", "squareLarge": "https://s3.amazonaws.com/brewerydbapi/brewery/ajfUAW/upload_vpUB32-squareLarge.png", "icon": "https://s3.amazonaws.com/brewerydbapi/brewery/ajfUAW/upload_vpUB32-icon.png"}, "id": "ajfUAW", "name": "Deslogetown Brewery"}], "style": {"category": {"createDate": "2012-03-21 20:06:46", "id": 5, "name": "Belgian And French Origin Ales"}, "ogMin": "1.054", "description": "Belgian-style blond ales are characterized by low yet evident hop bitterness, flavor, and sometimes aroma. Light to medium body and low malt aroma with a sweet, spiced and a low to medium fruity-ester character orchestrated in flavor and aroma. Sugar may be used to lighten perceived body. They are blonde to golden in color. Noble-type hops are commonly used. Low levels of phenolic spiciness from yeast byproducts may be perceived. Diacetyl should not be perceived. Acidic character should not be present. Chill haze is allowable at cold temperatures.", "createDate": "2012-03-21 20:06:46", "ibuMin": "15", "categoryId": 5, "srmMax": "7", "ibuMax": "30", "abvMin": "6", "fgMin": "1.008", "updateDate": "2015-04-07 15:32:01", "fgMax": "1.014", "shortName": "Belgian Blonde", "abvMax": "7.8", "id": 61, "srmMin": "4", "name": "Belgian-Style Blonde Ale"}, "createDate": "2015-05-05 01:18:30", "updateDate": "2015-05-05 15:59:53", "abv": "8.9", "styleId": 61, "id": "RV64hM", "name": "Kristie's Kryptonite"}, {"status": "verified", "isOrganic": "N", "description": "Kristin\u2019s Passion is a Mexican Hot Chocolate Porter. \u201cBrewed with cocoa nibs, cinnamon, vanilla bean, and red chilies, this beer is a liquid representation of my passionate side. Smooth and sweet with a little heat.\u201d oxox\u2013Kristin Burns", "statusDisplay": "Verified", "ingredients": {"hops": [{"myrceneMax": 60, "farneseneMax": 6, "cohumuloneMax": 40, "id": 22, "humuleneMax": 13, "category": "hop", "createDate": "2013-06-24 16:07:28", "farneseneMin": 6, "humuleneMin": 13, "betaAcidMax": 7, "cohumuloneMin": 33, "myrceneMin": 45, "alphaAcidMin": 5.5, "description": "Cascade was created in the United States as an open-pollinated cross between Fuggle and Serebrianker. Its instantly recognizable grapefruit, floral aroma is characteristic of many American ales. Cascade is also one of the easiest hop varieties to grow; it can grow well under less than ideal conditions or in short growing seasons, and unlike most varieties, if started from a good rhizome a Cascade can produce a good crop even in its first growing season.", "betaAcidMin": 4.5, "caryophylleneMax": 4.5, "caryophylleneMin": 4.5, "name": "Cascade", "countryOfOrigin": "US", "country": {"displayName": "United States", "name": "UNITED STATES", "isoThree": "USA", "createDate": "2012-01-03 02:41:33", "numberCode": 840, "isoCode": "US"}, "categoryDisplay": "Hops", "updateDate": "2013-06-24 16:10:37"}], "malt": [{"category": "malt", "createDate": "2013-06-24 16:07:45", "categoryDisplay": "Malts, Grains, & Fermentables", "id": 378, "name": "Caramel/Crystal Malt"}, {"category": "malt", "srmPrecise": 350, "description": "A dark malt that gives a rich red or brown color and a nutty flavor, used in brown ales, porters, and some stouts.", "srmId": 41, "countryOfOrigin": "US", "characteristics": [{"description": "Imparts a chocolate quality upon the beer.", "createDate": "2013-06-24 16:07:26", "id": 6, "name": "Chocolate"}, {"description": "Imparts a coffee flavor upon the beer.", "createDate": "2013-06-24 16:07:26", "id": 7, "name": "Coffee"}, {"description": "Imparts a nutty flavor upon the beer.", "createDate": "2013-06-24 16:07:26", "id": 11, "name": "Nutty"}, {"description": "Imparts a toasted flavor upon the beer.", "createDate": "2013-06-24 16:07:26", "id": 15, "name": "Toasted"}], "createDate": "2013-06-24 16:07:47", "categoryDisplay": "Malts, Grains, & Fermentables", "srm": {"hex": "000000", "id": 41, "name": "Over 40"}, "updateDate": "2013-06-24 16:10:14", "potential": 1.028, "coarseFineDifference": 1.5, "maxInBatch": 10, "requiresMashing": "N", "dryYield": 60, "protein": 13.2, "country": {"displayName": "United States", "name": "UNITED STATES", "isoThree": "USA", "createDate": "2012-01-03 02:41:33", "numberCode": 840, "isoCode": "US"}, "id": 429, "moistureContent": 4, "name": "Chocolate Malt"}, {"category": "malt", "createDate": "2013-06-24 16:07:50", "categoryDisplay": "Malts, Grains, & Fermentables", "id": 538, "name": "Rye - Flaked"}], "yeast": [{"category": "yeast", "createDate": "2015-08-03 20:19:38", "categoryDisplay": "Yeast", "id": 1961, "name": "Chico 1056"}]}, "nameDisplay": "Kristin's Passion", "breweries": [{"website": "http://oldoxbrewery.com/", "established": "2014", "isOrganic": "N", "name": "Old OX Brewery", "createDate": "2014-08-11 14:24:09", "locations": [{"status": "verified", "openToPublic": "Y", "isPrimary": "Y", "hoursOfOperation": "Thu:  4:00pm - 9:00pm\nFri:  4:00pm - 9:00pm\nSat:  11:00am - 9:00pm\nSun:  11:00am - 6:00pm\n\n", "locationTypeDisplay": "Micro Brewery", "inPlanning": "N", "locality": "Ashburn", "createDate": "2014-08-12 12:39:26", "id": "rj6kKW", "streetAddress": "44652 Guilford Dr", "postalCode": "20147", "extendedAddress": "Suite 114", "website": "http://www.oldoxbrewery.com", "statusDisplay": "Verified", "countryIsoCode": "US", "phone": "(703) 729-8375", "isClosed": "N", "name": "Main Brewery", "latitude": 39.0238995, "locationType": "micro", "region": "Virginia", "longitude": -77.4553148, "updateDate": "2014-08-12 12:39:26", "country": {"displayName": "United States", "name": "UNITED STATES", "isoThree": "USA", "createDate": "2012-01-03 02:41:33", "numberCode": 840, "isoCode": "US"}}], "nameShortDisplay": "Old OX", "status": "verified", "updateDate": "2015-12-22 15:57:33", "images": {"large": "https://s3.amazonaws.com/brewerydbapi/brewery/F63wdK/upload_1z3ivD-large.png", "medium": "https://s3.amazonaws.com/brewerydbapi/brewery/F63wdK/upload_1z3ivD-medium.png", "squareMedium": "https://s3.amazonaws.com/brewerydbapi/brewery/F63wdK/upload_1z3ivD-squareMedium.png", "squareLarge": "https://s3.amazonaws.com/brewerydbapi/brewery/F63wdK/upload_1z3ivD-squareLarge.png", "icon": "https://s3.amazonaws.com/brewerydbapi/brewery/F63wdK/upload_1z3ivD-icon.png"}, "id": "F63wdK", "statusDisplay": "Verified"}], "originalGravity": "1.057", "id": "uZ6DiO", "createDate": "2015-08-03 20:18:29", "updateDate": "2015-08-03 20:20:04", "abv": "6", "styleId": 19, "style": {"category": {"createDate": "2012-03-21 20:06:45", "id": 1, "name": "British Origin Ales"}, "ogMin": "1.045", "description": "Robust porters are black in color and have a roast malt flavor, often reminiscent of cocoa, but no roast barley flavor. These porters have a sharp bitterness of black malt without a highly burnt/charcoal flavor. Caramel and other malt sweetness should be present and in harmony with other distinguishing porter characters. Robust porters range from medium to full in body and have a malty sweetness. Hop bitterness is medium to high, with hop aroma and flavor ranging from negligible to medium. Diacetyl is acceptable at very low levels. Fruity esters should be evident, balanced with roast malt and hop bitterness.", "createDate": "2012-03-21 20:06:45", "ibuMin": "25", "categoryId": 1, "srmMax": "30", "ibuMax": "40", "abvMin": "5", "fgMin": "1.008", "updateDate": "2015-04-07 15:21:45", "fgMax": "1.016", "shortName": "Robust Porter", "abvMax": "6.5", "id": 19, "srmMin": "30", "name": "Robust Porter"}, "ibu": "25", "name": "Kristin's Passion"}, {"status": "verified", "isOrganic": "N", "name": "Kristin's Temper Jalape\u00f1o Pale Ale", "ingredients": {"hops": [{"myrceneMax": 60, "category": "hop", "farneseneMax": 1, "description": "Sometimes called a super Cascade, Centennial was bred in 1974 but not released until 1990. It has a floral, citrus aroma and a clean spicy flavor; its heritage includes Brewer's Gold, Fuggle, and East Kent Golding. Popular among craft brewers, Centennial lends its distinctive character to, among others, Sierra Nevada Celebration Ale and Sierra Nevada Bigfoot Barleywine.", "countryOfOrigin": "US", "country": {"displayName": "United States", "name": "UNITED STATES", "isoThree": "USA", "createDate": "2012-01-03 02:41:33", "numberCode": 840, "isoCode": "US"}, "createDate": "2013-06-24 16:07:28", "betaAcidMin": 3.5, "categoryDisplay": "Hops", "id": 24, "humuleneMin": 10, "betaAcidMax": 4.5, "caryophylleneMax": 8, "updateDate": "2013-06-24 16:10:37", "caryophylleneMin": 4, "cohumuloneMax": 30, "cohumuloneMin": 28, "myrceneMin": 45, "alphaAcidMin": 6, "humuleneMax": 18, "name": "Centennial"}, {"forAroma": "Y", "alphaAcidMax": 13, "myrceneMax": 65, "cohumuloneMax": 24, "farneseneMax": 1, "forFlavor": "Y", "id": 27, "humuleneMax": 13, "category": "hop", "createDate": "2013-06-24 16:07:28", "isNoble": "N", "humuleneMin": 11, "betaAcidMax": 4.5, "cohumuloneMin": 22, "myrceneMin": 60, "alphaAcidMin": 11, "description": "Comprised of Hallertau Mittelfr\u00fch, US Tettnang, Brewer's Gold and East Kent Golding", "betaAcidMin": 3.5, "caryophylleneMax": 8, "caryophylleneMin": 6, "name": "Citra", "categoryDisplay": "Hops", "updateDate": "2015-09-24 13:38:05", "forBittering": "N"}], "malt": [{"category": "malt", "srmPrecise": 22, "description": "A light Belgian crystal malt used in Trappist and Abbey style Belgian ales.", "srmId": 22, "countryOfOrigin": "BE", "country": {"displayName": "Belgium", "name": "BELGIUM", "isoThree": "BEL", "createDate": "2012-01-03 02:41:33", "numberCode": 56, "isoCode": "BE"}, "createDate": "2013-06-24 16:07:46", "categoryDisplay": "Malts, Grains, & Fermentables", "srm": {"hex": "8E2900", "id": 22, "name": "22"}, "updateDate": "2013-06-24 16:10:14", "potential": 1.034, "coarseFineDifference": 1.5, "maxInBatch": 10, "requiresMashing": "N", "dryYield": 73.9, "id": 399, "moistureContent": 4, "name": "CaraVienne Malt"}, {"characteristics": [{"description": "Imparts a malty flavor upon the beer.", "createDate": "2013-06-24 16:07:26", "id": 10, "name": "Malty"}, {"description": "Imparts a sweet flavor upon the beer.", "createDate": "2013-06-24 16:07:26", "id": 14, "name": "Sweet"}], "srmPrecise": 9, "description": "Munich Malt has a malty sweet flavor characteristic and adds a reddish amber color to the beer. It has enough diastatic power to convert itself, but needs help from another malt, such as 2-row malt, to convert other grains.", "srmId": 9, "countryOfOrigin": "DE", "diastaticPower": 72, "createDate": "2013-06-24 16:07:52", "categoryDisplay": "Malts, Grains, & Fermentables", "srm": {"hex": "E58500", "id": 9, "name": "9"}, "country": {"displayName": "Germany", "name": "GERMANY", "isoThree": "DEU", "createDate": "2012-01-03 02:41:33", "numberCode": 276, "isoCode": "DE"}, "updateDate": "2013-06-24 16:10:14", "potential": 1.037, "coarseFineDifference": 1.3, "maxInBatch": 80, "requiresMashing": "Y", "dryYield": 80, "protein": 11.5, "category": "malt", "id": 650, "moistureContent": 5, "name": "Munich Malt"}, {"category": "malt", "name": "Pale Malt", "characteristics": [{"description": "Imparts a malty flavor upon the beer.", "createDate": "2013-06-24 16:07:26", "id": 10, "name": "Malty"}], "createDate": "2013-06-24 16:07:42", "categoryDisplay": "Malts, Grains, & Fermentables", "id": 234}, {"category": "malt", "srmPrecise": 3.5, "description": "Vienna Malt is a kiln-dried barley malt darker than pale ale malt, but not as dark as Munich Malt. It imparts a golden to orange color and a distinctive toast or biscuit malt aroma to the beer.", "srmId": 4, "createDate": "2013-06-24 16:07:56", "categoryDisplay": "Malts, Grains, & Fermentables", "srm": {"hex": "FFBF42", "id": 4, "name": "4"}, "potential": 1.036, "updateDate": "2013-06-24 16:10:14", "maxInBatch": 90, "requiresMashing": "Y", "id": 814, "name": "Vienna Malt"}]}, "nameDisplay": "Kristin's Temper Jalape\u00f1o Pale Ale", "breweries": [{"website": "http://oldoxbrewery.com/", "established": "2014", "isOrganic": "N", "name": "Old OX Brewery", "createDate": "2014-08-11 14:24:09", "locations": [{"status": "verified", "openToPublic": "Y", "isPrimary": "Y", "hoursOfOperation": "Thu:  4:00pm - 9:00pm\nFri:  4:00pm - 9:00pm\nSat:  11:00am - 9:00pm\nSun:  11:00am - 6:00pm\n\n", "locationTypeDisplay": "Micro Brewery", "inPlanning": "N", "locality": "Ashburn", "createDate": "2014-08-12 12:39:26", "id": "rj6kKW", "streetAddress": "44652 Guilford Dr", "postalCode": "20147", "extendedAddress": "Suite 114", "website": "http://www.oldoxbrewery.com", "statusDisplay": "Verified", "countryIsoCode": "US", "phone": "(703) 729-8375", "isClosed": "N", "name": "Main Brewery", "latitude": 39.0238995, "locationType": "micro", "region": "Virginia", "longitude": -77.4553148, "updateDate": "2014-08-12 12:39:26", "country": {"displayName": "United States", "name": "UNITED STATES", "isoThree": "USA", "createDate": "2012-01-03 02:41:33", "numberCode": 840, "isoCode": "US"}}], "nameShortDisplay": "Old OX", "status": "verified", "updateDate": "2015-12-22 15:57:33", "images": {"large": "https://s3.amazonaws.com/brewerydbapi/brewery/F63wdK/upload_1z3ivD-large.png", "medium": "https://s3.amazonaws.com/brewerydbapi/brewery/F63wdK/upload_1z3ivD-medium.png", "squareMedium": "https://s3.amazonaws.com/brewerydbapi/brewery/F63wdK/upload_1z3ivD-squareMedium.png", "squareLarge": "https://s3.amazonaws.com/brewerydbapi/brewery/F63wdK/upload_1z3ivD-squareLarge.png", "icon": "https://s3.amazonaws.com/brewerydbapi/brewery/F63wdK/upload_1z3ivD-icon.png"}, "id": "F63wdK", "statusDisplay": "Verified"}], "style": {"category": {"createDate": "2012-03-21 20:06:45", "id": 3, "name": "North American Origin Ales"}, "ogMin": "1.044", "description": "American pale ales range from deep golden to copper in color. The style is characterized by fruity, floral and citrus-like American-variety hop character producing medium to medium-high hop bitterness, flavor, and aroma. Note that the \"traditional\" style of this beer has its origins with certain floral, fruity, citrus-like, piney, resinous, or sulfur-like American hop varietals. One or more of these hop characters is the perceived end, but the perceived hop characters may be a result of the skillful use of hops of other national origins. American pale ales have medium body and low to medium maltiness. Low caramel character is allowable. Fruity-ester flavor and aroma should be moderate to strong. Diacetyl should be absent or present at very low levels. Chill haze is allowable at cold temperatures.", "createDate": "2012-03-21 20:06:45", "ibuMin": "30", "categoryId": 3, "srmMax": "14", "ibuMax": "42", "abvMin": "4.5", "fgMin": "1.008", "updateDate": "2015-04-07 15:25:18", "fgMax": "1.014", "shortName": "American Pale", "abvMax": "5.6", "id": 25, "srmMin": "6", "name": "American-Style Pale Ale"}, "id": "D0EktQ", "createDate": "2015-06-10 19:09:51", "updateDate": "2015-08-03 20:16:07", "abv": "5.5", "styleId": 25, "ibu": "35", "statusDisplay": "Verified"}, {"status": "verified", "isOrganic": "N", "name": "Kristoferson", "nameDisplay": "Kristoferson", "breweries": [{"status": "verified", "isOrganic": "N", "name": "Big Lug Canteen", "createDate": "2014-09-05 12:24:30", "locations": [{"inPlanning": "N", "countryIsoCode": "US", "name": "Main Brewery", "locality": "Indianapolis", "openToPublic": "Y", "locationType": "micro", "region": "Indiana", "longitude": -86.1361078, "isClosed": "N", "phone": "(317) 555-0580", "streetAddress": "1435 East 86th St.", "createDate": "2014-09-05 12:25:03", "status": "verified", "updateDate": "2016-10-26 15:23:50", "country": {"displayName": "United States", "name": "UNITED STATES", "isoThree": "USA", "createDate": "2012-01-03 02:41:33", "numberCode": 840, "isoCode": "US"}, "postalCode": "46240", "latitude": 39.9116912, "isPrimary": "Y", "id": "LJJyU1", "locationTypeDisplay": "Micro Brewery", "statusDisplay": "Verified"}], "nameShortDisplay": "Big Lug Canteen", "updateDate": "2015-12-22 15:58:32", "images": {"large": "https://s3.amazonaws.com/brewerydbapi/brewery/2uKpqs/upload_iDDPge-large.png", "medium": "https://s3.amazonaws.com/brewerydbapi/brewery/2uKpqs/upload_iDDPge-medium.png", "squareMedium": "https://s3.amazonaws.com/brewerydbapi/brewery/2uKpqs/upload_iDDPge-squareMedium.png", "squareLarge": "https://s3.amazonaws.com/brewerydbapi/brewery/2uKpqs/upload_iDDPge-squareLarge.png", "icon": "https://s3.amazonaws.com/brewerydbapi/brewery/2uKpqs/upload_iDDPge-icon.png"}, "id": "2uKpqs", "statusDisplay": "Verified"}], "style": {"category": {"createDate": "2012-03-21 20:06:45", "id": 3, "name": "North American Origin Ales"}, "ogMin": "1.044", "description": "American pale ales range from deep golden to copper in color. The style is characterized by fruity, floral and citrus-like American-variety hop character producing medium to medium-high hop bitterness, flavor, and aroma. Note that the \"traditional\" style of this beer has its origins with certain floral, fruity, citrus-like, piney, resinous, or sulfur-like American hop varietals. One or more of these hop characters is the perceived end, but the perceived hop characters may be a result of the skillful use of hops of other national origins. American pale ales have medium body and low to medium maltiness. Low caramel character is allowable. Fruity-ester flavor and aroma should be moderate to strong. Diacetyl should be absent or present at very low levels. Chill haze is allowable at cold temperatures.", "createDate": "2012-03-21 20:06:45", "ibuMin": "30", "categoryId": 3, "srmMax": "14", "ibuMax": "42", "abvMin": "4.5", "fgMin": "1.008", "updateDate": "2015-04-07 15:25:18", "fgMax": "1.014", "shortName": "American Pale", "abvMax": "5.6", "id": 25, "srmMin": "6", "name": "American-Style Pale Ale"}, "id": "evc5DW", "createDate": "2016-11-11 01:43:10", "updateDate": "2016-11-11 13:53:39", "abv": "5.7", "styleId": 25, "ibu": "45", "statusDisplay": "Verified"}, {"status": "verified", "isOrganic": "N", "description": "For those of you accustomed to American light-lagers, here\u2019s a tasty upgrade. A crisp, grainy, light-bodied golden ale with a delicate white head. Originally brewed in Cologne (K\u00f6ln), Germany. Gulp it down for refreshment, or savour its subtle fruitiness, soft malty flavours, floral and black peppery hops, and smooth mouthfeel, with perhaps the faintest hint of mint. Somehow exotic and familiar. For light lager drinkers and connoisseurs.", "statusDisplay": "Verified", "nameDisplay": "Krohnies Bliss Kolsch", "breweries": [{"website": "http://www.republicbrew.com", "established": "2011", "isOrganic": "N", "description": "RBC brews and serves world class beer in community minded little pub.  Four local restaurants deliver to your table. Enjoy the outdoor beer garden, hand-crafted sodas and sip award winning beer.", "statusDisplay": "Verified", "createDate": "2013-09-30 14:45:49", "locations": [{"status": "verified", "openToPublic": "Y", "isPrimary": "Y", "hoursOfOperation": "Wed - Thu: 2:00 pm - 9:00 pm\r\nFri - Sat: 12:00 pm - 10:00 pm", "locationTypeDisplay": "Micro Brewery", "inPlanning": "N", "locality": "Republic", "createDate": "2013-10-01 12:02:43", "id": "NTO6Fr", "streetAddress": "26 Clark Ave", "postalCode": "99166", "website": "http://www.republicbrew.com/", "statusDisplay": "Verified", "yearOpened": "2011", "countryIsoCode": "US", "phone": "(509) 775-2700", "isClosed": "N", "name": "Main Brewery", "latitude": 48.6411987, "locationType": "micro", "region": "Washington", "longitude": -118.7340759, "updateDate": "2014-07-23 19:11:34", "country": {"displayName": "United States", "name": "UNITED STATES", "isoThree": "USA", "createDate": "2012-01-03 02:41:33", "numberCode": 840, "isoCode": "US"}}], "nameShortDisplay": "Republic", "status": "verified", "updateDate": "2015-12-22 15:47:40", "images": {"large": "https://s3.amazonaws.com/brewerydbapi/brewery/NfJcL9/upload_7kUKJm-large.png", "medium": "https://s3.amazonaws.com/brewerydbapi/brewery/NfJcL9/upload_7kUKJm-medium.png", "squareMedium": "https://s3.amazonaws.com/brewerydbapi/brewery/NfJcL9/upload_7kUKJm-squareMedium.png", "squareLarge": "https://s3.amazonaws.com/brewerydbapi/brewery/NfJcL9/upload_7kUKJm-squareLarge.png", "icon": "https://s3.amazonaws.com/brewerydbapi/brewery/NfJcL9/upload_7kUKJm-icon.png"}, "id": "NfJcL9", "name": "Republic Brewing Company"}], "originalGravity": "1.047", "id": "LhqTZ8", "createDate": "2015-03-13 18:56:25", "updateDate": "2015-03-13 18:56:25", "abv": "5", "styleId": 45, "style": {"category": {"createDate": "2012-03-21 20:06:46", "id": 4, "name": "German Origin Ales"}, "ogMin": "1.042", "description": "K\u00f6lsch is warm fermented and aged at cold temperatures (German ale or alt-style beer). K\u00f6lsch is characterized by a golden to straw color and a slightly dry, subtly sweet softness on the palate, yet crisp. Good, dense head retention is desirable. Light pearapple-Riesling wine-like fruitiness may be apparent, but is not necessary for this style. Caramel character should not be evident. The body is light to medium-light. This beer has low hop flavor and aroma with medium bitterness. Wheat can be used in brewing this beer. Ale yeast is used for fermentation, though lager yeast is sometimes used in the bottle or final cold conditioning process. Fruity esters should be minimally perceived, if at all. Chill haze should be absent.", "createDate": "2012-03-21 20:06:46", "ibuMin": "18", "categoryId": 4, "srmMax": "6", "ibuMax": "25", "abvMin": "4.8", "fgMin": "1.006", "updateDate": "2015-04-07 15:29:04", "fgMax": "1.01", "shortName": "K\u00f6lsch", "abvMax": "5.3", "id": 45, "srmMin": "4", "name": "German-Style K\u00f6lsch / K\u00f6ln-Style K\u00f6lsch"}, "ibu": "25", "name": "Krohnies Bliss Kolsch"}, {"status": "verified", "isOrganic": "N", "name": "Krolle-Bock", "nameDisplay": "Krolle-Bock", "breweries": [{"website": "http://www.bier-hannes.de/", "status": "verified", "isOrganic": "N", "name": "Bier-Hannes Brauerei zur Mainkur", "createDate": "2012-08-07 10:18:10", "locations": [{"inPlanning": "N", "countryIsoCode": "DE", "name": "Main Brewpub", "locality": "Frankfurt", "openToPublic": "Y", "locationType": "brewpub", "region": "Hesse", "longitude": 8.75167, "isClosed": "N", "latitude": 50.126085, "streetAddress": "Hanauer Landstra\u00dfe 568", "createDate": "2012-08-13 01:36:07", "status": "verified", "updateDate": "2014-07-23 19:11:34", "country": {"displayName": "Germany", "name": "GERMANY", "isoThree": "DEU", "createDate": "2012-01-03 02:41:33", "numberCode": 276, "isoCode": "DE"}, "postalCode": "60386", "isPrimary": "Y", "id": "LFGibu", "locationTypeDisplay": "Brewpub", "statusDisplay": "Verified"}], "nameShortDisplay": "Bier-Hannes Brauerei zur Mainkur", "updateDate": "2015-12-22 15:32:51", "id": "VzmL82", "statusDisplay": "Verified"}], "style": {"category": {"createDate": "2012-03-21 20:06:46", "id": 7, "name": "European-germanic Lager"}, "ogMin": "1.074", "description": "Malty sweetness is dominant but should not be cloying. Malt character is more reminiscent of fresh and lightly toasted Munich- style malt, more so than caramel or toffee malt character. Some elements of caramel and toffee can be evident and contribute to complexity, but the predominant malt character is an expression of toasted barley malt. Doppelbocks are full bodied and deep amber to dark brown in color. Astringency from roast malts is absent. Alcoholic strength is high, and hop rates increase with gravity. Hop bitterness and flavor should be low and hop aroma absent. Fruity esters are commonly perceived but at low to moderate levels. Diacetyl should be absent", "createDate": "2012-03-21 20:06:46", "ibuMin": "17", "categoryId": 7, "srmMax": "30", "ibuMax": "27", "abvMin": "6.5", "fgMin": "1.014", "updateDate": "2015-04-07 15:39:08", "fgMax": "1.02", "shortName": "Doppelbock", "abvMax": "8", "id": 90, "srmMin": "12", "name": "German-Style Doppelbock"}, "createDate": "2012-08-12 12:10:28", "updateDate": "2015-04-22 18:09:12", "abv": "7.5", "styleId": 90, "id": "3sui68", "statusDisplay": "Verified"}, {"status": "verified", "available": {"description": "Available year round as a staple beer.", "id": 1, "name": "Year Round"}, "isOrganic": "N", "breweries": [{"website": "http://www.krombacher.de/", "established": "1803", "isOrganic": "N", "description": "The brewery was founded on 4 February 1803 by John Haas. His father, Johann Eberhard Haas chatted in Krombach an inn. As for a Regulation of 25 July 1618 serving of beer was only allowed if the restaurant also had its own brewery and a malt kiln, John Haas set up a brewery in the family business. \r\n\r\nThe water for the brewery (\"Hasbrauerei\") they picked first in barrels from a spring at the foot of the Grumbergs in the west of the village by bullock carts to brewery. 1854 had a brewery owner Haas church annual 17 Gulden (Florin) pay rent that the water pipeline was conducted on church land to the village.", "statusDisplay": "Verified", "createDate": "2012-01-03 02:42:00", "locations": [{"status": "verified", "openToPublic": "Y", "isPrimary": "Y", "id": "yhMoEc", "locationTypeDisplay": "Micro Brewery", "inPlanning": "N", "locality": "Kreuztal-Krombach,", "createDate": "2012-01-03 02:42:00", "streetAddress": "Hagener Stra\u00dfe 261", "postalCode": "57223", "website": "http://www.krombacher.de/", "statusDisplay": "Verified", "countryIsoCode": "DE", "phone": "(2732) 880 380", "isClosed": "N", "name": "Main Brewery", "latitude": 50.99106, "locationType": "micro", "region": "North Rhine-Westphalia", "longitude": 7.95535, "updateDate": "2014-07-23 19:11:34", "country": {"displayName": "Germany", "name": "GERMANY", "isoThree": "DEU", "createDate": "2012-01-03 02:41:33", "numberCode": 276, "isoCode": "DE"}}, {"inPlanning": "N", "countryIsoCode": "DE", "name": "Main Brewery", "openToPublic": "Y", "locationType": "micro", "region": "Nordrhein-Westfalen", "longitude": 7.497394, "isClosed": "N", "createDate": "2012-08-12 14:45:53", "status": "deleted", "updateDate": "2014-07-23 19:11:34", "country": {"displayName": "Germany", "name": "GERMANY", "isoThree": "DEU", "createDate": "2012-01-03 02:41:33", "numberCode": 276, "isoCode": "DE"}, "latitude": 51.503106, "isPrimary": "N", "id": "UfxKKB", "locationTypeDisplay": "Micro Brewery", "statusDisplay": "Deleted"}], "nameShortDisplay": "Krombacher Gruppe", "status": "verified", "updateDate": "2015-12-22 15:27:11", "images": {"large": "https://s3.amazonaws.com/brewerydbapi/brewery/AP2EQU/upload_wp62Im-large.png", "medium": "https://s3.amazonaws.com/brewerydbapi/brewery/AP2EQU/upload_wp62Im-medium.png", "squareMedium": "https://s3.amazonaws.com/brewerydbapi/brewery/AP2EQU/upload_wp62Im-squareMedium.png", "squareLarge": "https://s3.amazonaws.com/brewerydbapi/brewery/AP2EQU/upload_wp62Im-squareLarge.png", "icon": "https://s3.amazonaws.com/brewerydbapi/brewery/AP2EQU/upload_wp62Im-icon.png"}, "id": "AP2EQU", "name": "Krombacher Gruppe"}], "description": "Aroma; hops, sweet malts, straw. Off white head, some lacings, golden body. Taste; grassy hops, fruity grassy malts. Clean taste, with hops playing a modest but distinct role underneath all through the tasting. To palate clean, smooth, easy. Finishes half dry with grass, hops, some malts and grains, and not as shortlived finish as many non-alcoholic beers have.", "statusDisplay": "Verified", "nameDisplay": "Krombacher Alkoholfrei", "servingTemperatureDisplay": "Cold - (4-7C/39-45F)", "style": {"category": {"createDate": "2012-03-21 20:06:46", "id": 11, "name": "Hybrid/mixed Beer"}, "description": "Non-alcoholic (NA) malt beverages should emulate the character of a previously listed category/subcategory designation but without the alcohol (less than 0.5 percent). Non-alcoholic (beer) malt beverages will inherently have a profile lacking the complexity and balance of flavors which can be attributed to alcohol. They should accordingly not be assessed negatively for reasons related to the absence of alcohol.", "createDate": "2012-03-21 20:06:46", "categoryId": 11, "updateDate": "2015-04-07 15:47:18", "shortName": "Non-Alcoholic", "id": 139, "name": "Non-Alcoholic (Beer) Malt Beverages"}, "name": "Krombacher Alkoholfrei", "servingTemperature": "cold", "glass": {"createDate": "2012-01-03 02:41:33", "id": 4, "name": "Pilsner"}, "createDate": "2012-08-12 12:14:25", "updateDate": "2014-04-22 12:26:08", "abv": "0.5", "styleId": 139, "availableId": 1, "id": "nLrWjX", "glasswareId": 4}, {"status": "verified", "available": {"description": "Available year round as a staple beer.", "id": 1, "name": "Year Round"}, "isOrganic": "N", "breweries": [{"website": "http://www.krombacher.de/", "established": "1803", "isOrganic": "N", "description": "The brewery was founded on 4 February 1803 by John Haas. His father, Johann Eberhard Haas chatted in Krombach an inn. As for a Regulation of 25 July 1618 serving of beer was only allowed if the restaurant also had its own brewery and a malt kiln, John Haas set up a brewery in the family business. \r\n\r\nThe water for the brewery (\"Hasbrauerei\") they picked first in barrels from a spring at the foot of the Grumbergs in the west of the village by bullock carts to brewery. 1854 had a brewery owner Haas church annual 17 Gulden (Florin) pay rent that the water pipeline was conducted on church land to the village.", "statusDisplay": "Verified", "createDate": "2012-01-03 02:42:00", "locations": [{"status": "verified", "openToPublic": "Y", "isPrimary": "Y", "id": "yhMoEc", "locationTypeDisplay": "Micro Brewery", "inPlanning": "N", "locality": "Kreuztal-Krombach,", "createDate": "2012-01-03 02:42:00", "streetAddress": "Hagener Stra\u00dfe 261", "postalCode": "57223", "website": "http://www.krombacher.de/", "statusDisplay": "Verified", "countryIsoCode": "DE", "phone": "(2732) 880 380", "isClosed": "N", "name": "Main Brewery", "latitude": 50.99106, "locationType": "micro", "region": "North Rhine-Westphalia", "longitude": 7.95535, "updateDate": "2014-07-23 19:11:34", "country": {"displayName": "Germany", "name": "GERMANY", "isoThree": "DEU", "createDate": "2012-01-03 02:41:33", "numberCode": 276, "isoCode": "DE"}}, {"inPlanning": "N", "countryIsoCode": "DE", "name": "Main Brewery", "openToPublic": "Y", "locationType": "micro", "region": "Nordrhein-Westfalen", "longitude": 7.497394, "isClosed": "N", "createDate": "2012-08-12 14:45:53", "status": "deleted", "updateDate": "2014-07-23 19:11:34", "country": {"displayName": "Germany", "name": "GERMANY", "isoThree": "DEU", "createDate": "2012-01-03 02:41:33", "numberCode": 276, "isoCode": "DE"}, "latitude": 51.503106, "isPrimary": "N", "id": "UfxKKB", "locationTypeDisplay": "Micro Brewery", "statusDisplay": "Deleted"}], "nameShortDisplay": "Krombacher Gruppe", "status": "verified", "updateDate": "2015-12-22 15:27:11", "images": {"large": "https://s3.amazonaws.com/brewerydbapi/brewery/AP2EQU/upload_wp62Im-large.png", "medium": "https://s3.amazonaws.com/brewerydbapi/brewery/AP2EQU/upload_wp62Im-medium.png", "squareMedium": "https://s3.amazonaws.com/brewerydbapi/brewery/AP2EQU/upload_wp62Im-squareMedium.png", "squareLarge": "https://s3.amazonaws.com/brewerydbapi/brewery/AP2EQU/upload_wp62Im-squareLarge.png", "icon": "https://s3.amazonaws.com/brewerydbapi/brewery/AP2EQU/upload_wp62Im-icon.png"}, "id": "AP2EQU", "name": "Krombacher Gruppe"}], "description": "Cab - Cola and Beer. With refreshing Dragonfruit.", "statusDisplay": "Verified", "nameDisplay": "Krombacher Cab", "labels": {"large": "https://s3.amazonaws.com/brewerydbapi/beer/GcklLH/upload_a6GL2W-large.png", "medium": "https://s3.amazonaws.com/brewerydbapi/beer/GcklLH/upload_a6GL2W-medium.png", "icon": "https://s3.amazonaws.com/brewerydbapi/beer/GcklLH/upload_a6GL2W-icon.png"}, "style": {"category": {"createDate": "2012-03-21 20:06:46", "id": 11, "name": "Hybrid/mixed Beer"}, "ogMin": "1.03", "description": "Fruit beers are any beers using fruit or fruit extracts as an adjunct in either, the mash, kettle, primary or secondary fermentation providing obvious (ranging from subtle to intense), yet harmonious, fruit qualities. Fruit qualities should not be overpowered by hop character. If a fruit (such as juniper berry) has an herbal or spice quality, it is more appropriate to consider it in the herb and spice beers category. Acidic bacterial (not wild yeast) fermentation characters may be evident (but not necessary) they would contribute to acidity and enhance fruity balance. Clear or hazy beer is acceptable in appearance. A statement by the brewer explaining what fruits are used is essential in order for fair assessment in competitions. If this beer is a classic style with fruit, the brewer should also specify the classic style.", "createDate": "2012-03-21 20:06:46", "ibuMin": "5", "categoryId": 11, "srmMax": "50", "ibuMax": "70", "abvMin": "2.5", "fgMin": "1.006", "updateDate": "2015-04-07 15:44:21", "fgMax": "1.03", "shortName": "Fruit Beer", "abvMax": "12", "id": 119, "srmMin": "5", "name": "Fruit Beer"}, "name": "Krombacher Cab", "servingTemperature": "very_cold", "glass": {"createDate": "2012-01-03 02:41:33", "id": 4, "name": "Pilsner"}, "servingTemperatureDisplay": "Very Cold - (0-4C/32-39F)", "createDate": "2012-08-12 12:14:27", "updateDate": "2015-12-16 18:34:38", "abv": "2.5", "styleId": 119, "availableId": 1, "id": "GcklLH", "glasswareId": 4}, {"status": "verified", "available": {"description": "Available year round as a staple beer.", "id": 1, "name": "Year Round"}, "isOrganic": "N", "breweries": [{"website": "http://www.krombacher.de/", "established": "1803", "isOrganic": "N", "description": "The brewery was founded on 4 February 1803 by John Haas. His father, Johann Eberhard Haas chatted in Krombach an inn. As for a Regulation of 25 July 1618 serving of beer was only allowed if the restaurant also had its own brewery and a malt kiln, John Haas set up a brewery in the family business. \r\n\r\nThe water for the brewery (\"Hasbrauerei\") they picked first in barrels from a spring at the foot of the Grumbergs in the west of the village by bullock carts to brewery. 1854 had a brewery owner Haas church annual 17 Gulden (Florin) pay rent that the water pipeline was conducted on church land to the village.", "statusDisplay": "Verified", "createDate": "2012-01-03 02:42:00", "locations": [{"status": "verified", "openToPublic": "Y", "isPrimary": "Y", "id": "yhMoEc", "locationTypeDisplay": "Micro Brewery", "inPlanning": "N", "locality": "Kreuztal-Krombach,", "createDate": "2012-01-03 02:42:00", "streetAddress": "Hagener Stra\u00dfe 261", "postalCode": "57223", "website": "http://www.krombacher.de/", "statusDisplay": "Verified", "countryIsoCode": "DE", "phone": "(2732) 880 380", "isClosed": "N", "name": "Main Brewery", "latitude": 50.99106, "locationType": "micro", "region": "North Rhine-Westphalia", "longitude": 7.95535, "updateDate": "2014-07-23 19:11:34", "country": {"displayName": "Germany", "name": "GERMANY", "isoThree": "DEU", "createDate": "2012-01-03 02:41:33", "numberCode": 276, "isoCode": "DE"}}, {"inPlanning": "N", "countryIsoCode": "DE", "name": "Main Brewery", "openToPublic": "Y", "locationType": "micro", "region": "Nordrhein-Westfalen", "longitude": 7.497394, "isClosed": "N", "createDate": "2012-08-12 14:45:53", "status": "deleted", "updateDate": "2014-07-23 19:11:34", "country": {"displayName": "Germany", "name": "GERMANY", "isoThree": "DEU", "createDate": "2012-01-03 02:41:33", "numberCode": 276, "isoCode": "DE"}, "latitude": 51.503106, "isPrimary": "N", "id": "UfxKKB", "locationTypeDisplay": "Micro Brewery", "statusDisplay": "Deleted"}], "nameShortDisplay": "Krombacher Gruppe", "status": "verified", "updateDate": "2015-12-22 15:27:11", "images": {"large": "https://s3.amazonaws.com/brewerydbapi/brewery/AP2EQU/upload_wp62Im-large.png", "medium": "https://s3.amazonaws.com/brewerydbapi/brewery/AP2EQU/upload_wp62Im-medium.png", "squareMedium": "https://s3.amazonaws.com/brewerydbapi/brewery/AP2EQU/upload_wp62Im-squareMedium.png", "squareLarge": "https://s3.amazonaws.com/brewerydbapi/brewery/AP2EQU/upload_wp62Im-squareLarge.png", "icon": "https://s3.amazonaws.com/brewerydbapi/brewery/AP2EQU/upload_wp62Im-icon.png"}, "id": "AP2EQU", "name": "Krombacher Gruppe"}], "name": "Krombacher Dark", "nameDisplay": "Krombacher Dark", "labels": {"large": "https://s3.amazonaws.com/brewerydbapi/beer/2VhuKh/upload_WeUvqU-large.png", "medium": "https://s3.amazonaws.com/brewerydbapi/beer/2VhuKh/upload_WeUvqU-medium.png", "icon": "https://s3.amazonaws.com/brewerydbapi/beer/2VhuKh/upload_WeUvqU-icon.png"}, "style": {"category": {"createDate": "2012-03-21 20:06:46", "id": 7, "name": "European-germanic Lager"}, "ogMin": "1.044", "description": "These very dark brown to black beers have a mild roasted malt character without the associated bitterness. This is not a fullbodied beer, but rather a moderate body gently enhances malt flavor and aroma with low to moderate levels of sweetness. Hop bitterness is low to medium in character. Noble-type hop flavor and aroma should be low but perceptible. There should be no fruity esters. Diacetyl should not be perceived.", "createDate": "2012-03-21 20:06:46", "ibuMin": "22", "categoryId": 7, "srmMax": "30", "ibuMax": "30", "abvMin": "3.8", "fgMin": "1.01", "updateDate": "2015-04-07 15:37:12", "fgMax": "1.016", "shortName": "Schwarzbier", "abvMax": "5", "id": 84, "srmMin": "25", "name": "German-Style Schwarzbier"}, "createDate": "2015-07-20 20:16:21", "updateDate": "2015-12-18 03:45:21", "abv": "4.3", "styleId": 84, "availableId": 1, "id": "2VhuKh", "statusDisplay": "Verified"}, {"status": "verified", "available": {"description": "Available year round as a staple beer.", "id": 1, "name": "Year Round"}, "isOrganic": "N", "breweries": [{"website": "http://www.krombacher.de/", "established": "1803", "isOrganic": "N", "description": "The brewery was founded on 4 February 1803 by John Haas. His father, Johann Eberhard Haas chatted in Krombach an inn. As for a Regulation of 25 July 1618 serving of beer was only allowed if the restaurant also had its own brewery and a malt kiln, John Haas set up a brewery in the family business. \r\n\r\nThe water for the brewery (\"Hasbrauerei\") they picked first in barrels from a spring at the foot of the Grumbergs in the west of the village by bullock carts to brewery. 1854 had a brewery owner Haas church annual 17 Gulden (Florin) pay rent that the water pipeline was conducted on church land to the village.", "statusDisplay": "Verified", "createDate": "2012-01-03 02:42:00", "locations": [{"status": "verified", "openToPublic": "Y", "isPrimary": "Y", "id": "yhMoEc", "locationTypeDisplay": "Micro Brewery", "inPlanning": "N", "locality": "Kreuztal-Krombach,", "createDate": "2012-01-03 02:42:00", "streetAddress": "Hagener Stra\u00dfe 261", "postalCode": "57223", "website": "http://www.krombacher.de/", "statusDisplay": "Verified", "countryIsoCode": "DE", "phone": "(2732) 880 380", "isClosed": "N", "name": "Main Brewery", "latitude": 50.99106, "locationType": "micro", "region": "North Rhine-Westphalia", "longitude": 7.95535, "updateDate": "2014-07-23 19:11:34", "country": {"displayName": "Germany", "name": "GERMANY", "isoThree": "DEU", "createDate": "2012-01-03 02:41:33", "numberCode": 276, "isoCode": "DE"}}, {"inPlanning": "N", "countryIsoCode": "DE", "name": "Main Brewery", "openToPublic": "Y", "locationType": "micro", "region": "Nordrhein-Westfalen", "longitude": 7.497394, "isClosed": "N", "createDate": "2012-08-12 14:45:53", "status": "deleted", "updateDate": "2014-07-23 19:11:34", "country": {"displayName": "Germany", "name": "GERMANY", "isoThree": "DEU", "createDate": "2012-01-03 02:41:33", "numberCode": 276, "isoCode": "DE"}, "latitude": 51.503106, "isPrimary": "N", "id": "UfxKKB", "locationTypeDisplay": "Micro Brewery", "statusDisplay": "Deleted"}], "nameShortDisplay": "Krombacher Gruppe", "status": "verified", "updateDate": "2015-12-22 15:27:11", "images": {"large": "https://s3.amazonaws.com/brewerydbapi/brewery/AP2EQU/upload_wp62Im-large.png", "medium": "https://s3.amazonaws.com/brewerydbapi/brewery/AP2EQU/upload_wp62Im-medium.png", "squareMedium": "https://s3.amazonaws.com/brewerydbapi/brewery/AP2EQU/upload_wp62Im-squareMedium.png", "squareLarge": "https://s3.amazonaws.com/brewerydbapi/brewery/AP2EQU/upload_wp62Im-squareLarge.png", "icon": "https://s3.amazonaws.com/brewerydbapi/brewery/AP2EQU/upload_wp62Im-icon.png"}, "id": "AP2EQU", "name": "Krombacher Gruppe"}], "description": "A- Very dark brown, with red highlights. It has a khaki head with fair retention. Lacing is nice, leaving well defined rings down the sides of the glass.\r\nS- Lighter and fruitier than expected. It shows notes of floral sweetness, raisin, and cocoa.\r\nT- Sweet raisins covered in chocolate, slightly tart in the mid-palate. The finish is dry, with mild roasty notes of black coffee.\r\nM- Light, dry. light carbonation that is very gentle.\r\nO- Very impressed. The body of a lager, with the taste and aroma of something more. Easy drinking, sessionable, and very good.", "statusDisplay": "Verified", "nameDisplay": "Krombacher Dunkel", "labels": {"large": "https://s3.amazonaws.com/brewerydbapi/beer/67yNYt/upload_UpGpEy-large.png", "medium": "https://s3.amazonaws.com/brewerydbapi/beer/67yNYt/upload_UpGpEy-medium.png", "icon": "https://s3.amazonaws.com/brewerydbapi/beer/67yNYt/upload_UpGpEy-icon.png"}, "style": {"category": {"createDate": "2012-03-21 20:06:46", "id": 7, "name": "European-germanic Lager"}, "ogMin": "1.074", "description": "Malty sweetness is dominant but should not be cloying. Malt character is more reminiscent of fresh and lightly toasted Munich- style malt, more so than caramel or toffee malt character. Some elements of caramel and toffee can be evident and contribute to complexity, but the predominant malt character is an expression of toasted barley malt. Doppelbocks are full bodied and deep amber to dark brown in color. Astringency from roast malts is absent. Alcoholic strength is high, and hop rates increase with gravity. Hop bitterness and flavor should be low and hop aroma absent. Fruity esters are commonly perceived but at low to moderate levels. Diacetyl should be absent", "createDate": "2012-03-21 20:06:46", "ibuMin": "17", "categoryId": 7, "srmMax": "30", "ibuMax": "27", "abvMin": "6.5", "fgMin": "1.014", "updateDate": "2015-04-07 15:39:08", "fgMax": "1.02", "shortName": "Doppelbock", "abvMax": "8", "id": 90, "srmMin": "12", "name": "German-Style Doppelbock"}, "name": "Krombacher Dunkel", "servingTemperature": "cold", "glass": {"createDate": "2012-01-03 02:41:33", "id": 4, "name": "Pilsner"}, "servingTemperatureDisplay": "Cold - (4-7C/39-45F)", "createDate": "2014-04-19 18:58:04", "updateDate": "2015-12-17 13:23:45", "abv": "4.3", "styleId": 90, "availableId": 1, "id": "67yNYt", "glasswareId": 4}, {"status": "verified", "available": {"description": "Available year round as a staple beer.", "id": 1, "name": "Year Round"}, "isOrganic": "N", "breweries": [{"website": "http://www.krombacher.de/", "established": "1803", "isOrganic": "N", "description": "The brewery was founded on 4 February 1803 by John Haas. His father, Johann Eberhard Haas chatted in Krombach an inn. As for a Regulation of 25 July 1618 serving of beer was only allowed if the restaurant also had its own brewery and a malt kiln, John Haas set up a brewery in the family business. \r\n\r\nThe water for the brewery (\"Hasbrauerei\") they picked first in barrels from a spring at the foot of the Grumbergs in the west of the village by bullock carts to brewery. 1854 had a brewery owner Haas church annual 17 Gulden (Florin) pay rent that the water pipeline was conducted on church land to the village.", "statusDisplay": "Verified", "createDate": "2012-01-03 02:42:00", "locations": [{"status": "verified", "openToPublic": "Y", "isPrimary": "Y", "id": "yhMoEc", "locationTypeDisplay": "Micro Brewery", "inPlanning": "N", "locality": "Kreuztal-Krombach,", "createDate": "2012-01-03 02:42:00", "streetAddress": "Hagener Stra\u00dfe 261", "postalCode": "57223", "website": "http://www.krombacher.de/", "statusDisplay": "Verified", "countryIsoCode": "DE", "phone": "(2732) 880 380", "isClosed": "N", "name": "Main Brewery", "latitude": 50.99106, "locationType": "micro", "region": "North Rhine-Westphalia", "longitude": 7.95535, "updateDate": "2014-07-23 19:11:34", "country": {"displayName": "Germany", "name": "GERMANY", "isoThree": "DEU", "createDate": "2012-01-03 02:41:33", "numberCode": 276, "isoCode": "DE"}}, {"inPlanning": "N", "countryIsoCode": "DE", "name": "Main Brewery", "openToPublic": "Y", "locationType": "micro", "region": "Nordrhein-Westfalen", "longitude": 7.497394, "isClosed": "N", "createDate": "2012-08-12 14:45:53", "status": "deleted", "updateDate": "2014-07-23 19:11:34", "country": {"displayName": "Germany", "name": "GERMANY", "isoThree": "DEU", "createDate": "2012-01-03 02:41:33", "numberCode": 276, "isoCode": "DE"}, "latitude": 51.503106, "isPrimary": "N", "id": "UfxKKB", "locationTypeDisplay": "Micro Brewery", "statusDisplay": "Deleted"}], "nameShortDisplay": "Krombacher Gruppe", "status": "verified", "updateDate": "2015-12-22 15:27:11", "images": {"large": "https://s3.amazonaws.com/brewerydbapi/brewery/AP2EQU/upload_wp62Im-large.png", "medium": "https://s3.amazonaws.com/brewerydbapi/brewery/AP2EQU/upload_wp62Im-medium.png", "squareMedium": "https://s3.amazonaws.com/brewerydbapi/brewery/AP2EQU/upload_wp62Im-squareMedium.png", "squareLarge": "https://s3.amazonaws.com/brewerydbapi/brewery/AP2EQU/upload_wp62Im-squareLarge.png", "icon": "https://s3.amazonaws.com/brewerydbapi/brewery/AP2EQU/upload_wp62Im-icon.png"}, "id": "AP2EQU", "name": "Krombacher Gruppe"}], "description": "Pale yellow, small head. Fruity vegetable aroma. Sweet and fruity with unclean vegetable flavour.", "statusDisplay": "Verified", "nameDisplay": "Krombacher Extra Mild", "labels": {"large": "https://s3.amazonaws.com/brewerydbapi/beer/1zJ92P/upload_VsKRsY-large.png", "medium": "https://s3.amazonaws.com/brewerydbapi/beer/1zJ92P/upload_VsKRsY-medium.png", "icon": "https://s3.amazonaws.com/brewerydbapi/beer/1zJ92P/upload_VsKRsY-icon.png"}, "style": {"category": {"createDate": "2012-03-21 20:06:46", "id": 8, "name": "North American Lager"}, "ogMin": "1.04", "description": "Light in body and very light to straw in color, American lagers are very clean and crisp and aggressively carbonated. Flavor components should b e subtle and complex, with no one ingredient dominating the others. Malt sweetness is light to mild. Corn, rice, or other grain or sugar adjuncts are often used. Hop bitterness, flavor and aroma are negligible to very light. Light fruity esters are acceptable. Chill haze and diacetyl should be absent.", "createDate": "2012-03-21 20:06:46", "ibuMin": "5", "categoryId": 8, "srmMax": "4", "ibuMax": "13", "abvMin": "3.8", "fgMin": "1.006", "updateDate": "2015-04-07 15:39:26", "fgMax": "1.01", "shortName": "American Lager", "abvMax": "5", "id": 93, "srmMin": "2", "name": "American-Style Lager"}, "name": "Krombacher Extra Mild", "servingTemperature": "very_cold", "glass": {"createDate": "2012-01-03 02:41:33", "id": 4, "name": "Pilsner"}, "servingTemperatureDisplay": "Very Cold - (0-4C/32-39F)", "createDate": "2012-08-12 12:14:26", "updateDate": "2015-12-16 18:11:57", "abv": "4.8", "styleId": 93, "availableId": 1, "id": "1zJ92P", "glasswareId": 4}, {"status": "verified", "available": {"description": "Available year round as a staple beer.", "id": 1, "name": "Year Round"}, "isOrganic": "N", "breweries": [{"website": "http://www.krombacher.de/", "established": "1803", "isOrganic": "N", "description": "The brewery was founded on 4 February 1803 by John Haas. His father, Johann Eberhard Haas chatted in Krombach an inn. As for a Regulation of 25 July 1618 serving of beer was only allowed if the restaurant also had its own brewery and a malt kiln, John Haas set up a brewery in the family business. \r\n\r\nThe water for the brewery (\"Hasbrauerei\") they picked first in barrels from a spring at the foot of the Grumbergs in the west of the village by bullock carts to brewery. 1854 had a brewery owner Haas church annual 17 Gulden (Florin) pay rent that the water pipeline was conducted on church land to the village.", "statusDisplay": "Verified", "createDate": "2012-01-03 02:42:00", "locations": [{"status": "verified", "openToPublic": "Y", "isPrimary": "Y", "id": "yhMoEc", "locationTypeDisplay": "Micro Brewery", "inPlanning": "N", "locality": "Kreuztal-Krombach,", "createDate": "2012-01-03 02:42:00", "streetAddress": "Hagener Stra\u00dfe 261", "postalCode": "57223", "website": "http://www.krombacher.de/", "statusDisplay": "Verified", "countryIsoCode": "DE", "phone": "(2732) 880 380", "isClosed": "N", "name": "Main Brewery", "latitude": 50.99106, "locationType": "micro", "region": "North Rhine-Westphalia", "longitude": 7.95535, "updateDate": "2014-07-23 19:11:34", "country": {"displayName": "Germany", "name": "GERMANY", "isoThree": "DEU", "createDate": "2012-01-03 02:41:33", "numberCode": 276, "isoCode": "DE"}}, {"inPlanning": "N", "countryIsoCode": "DE", "name": "Main Brewery", "openToPublic": "Y", "locationType": "micro", "region": "Nordrhein-Westfalen", "longitude": 7.497394, "isClosed": "N", "createDate": "2012-08-12 14:45:53", "status": "deleted", "updateDate": "2014-07-23 19:11:34", "country": {"displayName": "Germany", "name": "GERMANY", "isoThree": "DEU", "createDate": "2012-01-03 02:41:33", "numberCode": 276, "isoCode": "DE"}, "latitude": 51.503106, "isPrimary": "N", "id": "UfxKKB", "locationTypeDisplay": "Micro Brewery", "statusDisplay": "Deleted"}], "nameShortDisplay": "Krombacher Gruppe", "status": "verified", "updateDate": "2015-12-22 15:27:11", "images": {"large": "https://s3.amazonaws.com/brewerydbapi/brewery/AP2EQU/upload_wp62Im-large.png", "medium": "https://s3.amazonaws.com/brewerydbapi/brewery/AP2EQU/upload_wp62Im-medium.png", "squareMedium": "https://s3.amazonaws.com/brewerydbapi/brewery/AP2EQU/upload_wp62Im-squareMedium.png", "squareLarge": "https://s3.amazonaws.com/brewerydbapi/brewery/AP2EQU/upload_wp62Im-squareLarge.png", "icon": "https://s3.amazonaws.com/brewerydbapi/brewery/AP2EQU/upload_wp62Im-icon.png"}, "id": "AP2EQU", "name": "Krombacher Gruppe"}], "description": "Pours a clear golden yellow with a fluffy white cap. The smell is grain, grass, mild mnalt sweetness. The taste is honey, grain, grass with a hint of caramel ending dry. The body is light+ and smooth with average somewhat tight carbonation", "statusDisplay": "Verified", "nameDisplay": "Krombacher Hell", "servingTemperatureDisplay": "Cold - (4-7C/39-45F)", "style": {"category": {"createDate": "2012-03-21 20:06:46", "id": 7, "name": "European-germanic Lager"}, "ogMin": "1.044", "description": "A classic German Pilsener is very light straw or golden in color and well hopped. Perception of hop bitterness is medium to high. Noble-type hop aroma and flavor are moderate and quite obvious. It is a well-attenuated, medium-light bodied beer, but a malty residual sweetness can be perceived in aroma and flavor. Very low levels of sweet corn-like dimethylsulfide (DMS) character are below most beer drinkers' taste thresholds and are usually not detectable except to the trained or sensitive palate. Other fermentation or hop related sulfur compounds, when perceived at low levels, may be characteristic of this style. Fruity esters and diacetyl should not be perceived. There should be no chill haze. Its head should be dense and rich.", "createDate": "2012-03-21 20:06:46", "ibuMin": "25", "categoryId": 7, "srmMax": "4", "ibuMax": "40", "abvMin": "4", "fgMin": "1.006", "updateDate": "2015-04-07 15:35:59", "fgMax": "1.012", "shortName": "German Pilsener", "abvMax": "5", "id": 75, "srmMin": "3", "name": "German-Style Pilsener"}, "name": "Krombacher Hell", "servingTemperature": "cold", "glass": {"createDate": "2012-01-03 02:41:33", "id": 4, "name": "Pilsner"}, "createDate": "2014-04-19 19:36:05", "updateDate": "2014-11-18 17:58:27", "abv": "5", "styleId": 75, "availableId": 1, "id": "ZOrcAd", "glasswareId": 4}, {"status": "verified", "available": {"description": "Available year round as a staple beer.", "id": 1, "name": "Year Round"}, "isOrganic": "N", "breweries": [{"website": "http://www.krombacher.de/", "established": "1803", "isOrganic": "N", "description": "The brewery was founded on 4 February 1803 by John Haas. His father, Johann Eberhard Haas chatted in Krombach an inn. As for a Regulation of 25 July 1618 serving of beer was only allowed if the restaurant also had its own brewery and a malt kiln, John Haas set up a brewery in the family business. \r\n\r\nThe water for the brewery (\"Hasbrauerei\") they picked first in barrels from a spring at the foot of the Grumbergs in the west of the village by bullock carts to brewery. 1854 had a brewery owner Haas church annual 17 Gulden (Florin) pay rent that the water pipeline was conducted on church land to the village.", "statusDisplay": "Verified", "createDate": "2012-01-03 02:42:00", "locations": [{"status": "verified", "openToPublic": "Y", "isPrimary": "Y", "id": "yhMoEc", "locationTypeDisplay": "Micro Brewery", "inPlanning": "N", "locality": "Kreuztal-Krombach,", "createDate": "2012-01-03 02:42:00", "streetAddress": "Hagener Stra\u00dfe 261", "postalCode": "57223", "website": "http://www.krombacher.de/", "statusDisplay": "Verified", "countryIsoCode": "DE", "phone": "(2732) 880 380", "isClosed": "N", "name": "Main Brewery", "latitude": 50.99106, "locationType": "micro", "region": "North Rhine-Westphalia", "longitude": 7.95535, "updateDate": "2014-07-23 19:11:34", "country": {"displayName": "Germany", "name": "GERMANY", "isoThree": "DEU", "createDate": "2012-01-03 02:41:33", "numberCode": 276, "isoCode": "DE"}}, {"inPlanning": "N", "countryIsoCode": "DE", "name": "Main Brewery", "openToPublic": "Y", "locationType": "micro", "region": "Nordrhein-Westfalen", "longitude": 7.497394, "isClosed": "N", "createDate": "2012-08-12 14:45:53", "status": "deleted", "updateDate": "2014-07-23 19:11:34", "country": {"displayName": "Germany", "name": "GERMANY", "isoThree": "DEU", "createDate": "2012-01-03 02:41:33", "numberCode": 276, "isoCode": "DE"}, "latitude": 51.503106, "isPrimary": "N", "id": "UfxKKB", "locationTypeDisplay": "Micro Brewery", "statusDisplay": "Deleted"}], "nameShortDisplay": "Krombacher Gruppe", "status": "verified", "updateDate": "2015-12-22 15:27:11", "images": {"large": "https://s3.amazonaws.com/brewerydbapi/brewery/AP2EQU/upload_wp62Im-large.png", "medium": "https://s3.amazonaws.com/brewerydbapi/brewery/AP2EQU/upload_wp62Im-medium.png", "squareMedium": "https://s3.amazonaws.com/brewerydbapi/brewery/AP2EQU/upload_wp62Im-squareMedium.png", "squareLarge": "https://s3.amazonaws.com/brewerydbapi/brewery/AP2EQU/upload_wp62Im-squareLarge.png", "icon": "https://s3.amazonaws.com/brewerydbapi/brewery/AP2EQU/upload_wp62Im-icon.png"}, "id": "AP2EQU", "name": "Krombacher Gruppe"}], "description": "Golden yellow, darker than other Pilsen beers. Clear filtered. Bright, but not snow-white foam, maintains a while. The smell subtly sweetish malt - reminiscent of white bread. Solid, but not very aromatic hops also gets into the nose. Light malty Antrunk, a bit more malt than other 'television beers'. As in the smell slightly bready-grainy. Well balanced, very calmly. Moderately hopped in the finish, solid and flawless, but without frills and want to represent with little will learn about the standard.", "statusDisplay": "Verified", "nameDisplay": "Krombacher Pils", "labels": {"large": "https://s3.amazonaws.com/brewerydbapi/beer/iDPJEi/upload_9uDW7q-large.png", "medium": "https://s3.amazonaws.com/brewerydbapi/beer/iDPJEi/upload_9uDW7q-medium.png", "icon": "https://s3.amazonaws.com/brewerydbapi/beer/iDPJEi/upload_9uDW7q-icon.png"}, "style": {"category": {"createDate": "2012-03-21 20:06:46", "id": 7, "name": "European-germanic Lager"}, "ogMin": "1.044", "description": "A classic German Pilsener is very light straw or golden in color and well hopped. Perception of hop bitterness is medium to high. Noble-type hop aroma and flavor are moderate and quite obvious. It is a well-attenuated, medium-light bodied beer, but a malty residual sweetness can be perceived in aroma and flavor. Very low levels of sweet corn-like dimethylsulfide (DMS) character are below most beer drinkers' taste thresholds and are usually not detectable except to the trained or sensitive palate. Other fermentation or hop related sulfur compounds, when perceived at low levels, may be characteristic of this style. Fruity esters and diacetyl should not be perceived. There should be no chill haze. Its head should be dense and rich.", "createDate": "2012-03-21 20:06:46", "ibuMin": "25", "categoryId": 7, "srmMax": "4", "ibuMax": "40", "abvMin": "4", "fgMin": "1.006", "updateDate": "2015-04-07 15:35:59", "fgMax": "1.012", "shortName": "German Pilsener", "abvMax": "5", "id": 75, "srmMin": "3", "name": "German-Style Pilsener"}, "name": "Krombacher Pils", "servingTemperature": "very_cold", "glass": {"createDate": "2012-01-03 02:41:33", "id": 4, "name": "Pilsner"}, "servingTemperatureDisplay": "Very Cold - (0-4C/32-39F)", "createDate": "2012-01-03 02:43:34", "updateDate": "2016-05-20 14:03:29", "abv": "4.8", "styleId": 75, "availableId": 1, "id": "iDPJEi", "glasswareId": 4}, {"status": "verified", "available": {"description": "Available year round as a staple beer.", "id": 1, "name": "Year Round"}, "isOrganic": "N", "breweries": [{"website": "http://www.krombacher.de/", "established": "1803", "isOrganic": "N", "description": "The brewery was founded on 4 February 1803 by John Haas. His father, Johann Eberhard Haas chatted in Krombach an inn. As for a Regulation of 25 July 1618 serving of beer was only allowed if the restaurant also had its own brewery and a malt kiln, John Haas set up a brewery in the family business. \r\n\r\nThe water for the brewery (\"Hasbrauerei\") they picked first in barrels from a spring at the foot of the Grumbergs in the west of the village by bullock carts to brewery. 1854 had a brewery owner Haas church annual 17 Gulden (Florin) pay rent that the water pipeline was conducted on church land to the village.", "statusDisplay": "Verified", "createDate": "2012-01-03 02:42:00", "locations": [{"status": "verified", "openToPublic": "Y", "isPrimary": "Y", "id": "yhMoEc", "locationTypeDisplay": "Micro Brewery", "inPlanning": "N", "locality": "Kreuztal-Krombach,", "createDate": "2012-01-03 02:42:00", "streetAddress": "Hagener Stra\u00dfe 261", "postalCode": "57223", "website": "http://www.krombacher.de/", "statusDisplay": "Verified", "countryIsoCode": "DE", "phone": "(2732) 880 380", "isClosed": "N", "name": "Main Brewery", "latitude": 50.99106, "locationType": "micro", "region": "North Rhine-Westphalia", "longitude": 7.95535, "updateDate": "2014-07-23 19:11:34", "country": {"displayName": "Germany", "name": "GERMANY", "isoThree": "DEU", "createDate": "2012-01-03 02:41:33", "numberCode": 276, "isoCode": "DE"}}, {"inPlanning": "N", "countryIsoCode": "DE", "name": "Main Brewery", "openToPublic": "Y", "locationType": "micro", "region": "Nordrhein-Westfalen", "longitude": 7.497394, "isClosed": "N", "createDate": "2012-08-12 14:45:53", "status": "deleted", "updateDate": "2014-07-23 19:11:34", "country": {"displayName": "Germany", "name": "GERMANY", "isoThree": "DEU", "createDate": "2012-01-03 02:41:33", "numberCode": 276, "isoCode": "DE"}, "latitude": 51.503106, "isPrimary": "N", "id": "UfxKKB", "locationTypeDisplay": "Micro Brewery", "statusDisplay": "Deleted"}], "nameShortDisplay": "Krombacher Gruppe", "status": "verified", "updateDate": "2015-12-22 15:27:11", "images": {"large": "https://s3.amazonaws.com/brewerydbapi/brewery/AP2EQU/upload_wp62Im-large.png", "medium": "https://s3.amazonaws.com/brewerydbapi/brewery/AP2EQU/upload_wp62Im-medium.png", "squareMedium": "https://s3.amazonaws.com/brewerydbapi/brewery/AP2EQU/upload_wp62Im-squareMedium.png", "squareLarge": "https://s3.amazonaws.com/brewerydbapi/brewery/AP2EQU/upload_wp62Im-squareLarge.png", "icon": "https://s3.amazonaws.com/brewerydbapi/brewery/AP2EQU/upload_wp62Im-icon.png"}, "id": "AP2EQU", "name": "Krombacher Gruppe"}], "description": "Natural fresh lemon taste. Mixed drink consisting of 50% beer and 50% citrus lemonade.", "statusDisplay": "Verified", "nameDisplay": "Krombacher Radler", "labels": {"large": "https://s3.amazonaws.com/brewerydbapi/beer/PfaKsy/upload_9oN3P8-large.png", "medium": "https://s3.amazonaws.com/brewerydbapi/beer/PfaKsy/upload_9oN3P8-medium.png", "icon": "https://s3.amazonaws.com/brewerydbapi/beer/PfaKsy/upload_9oN3P8-icon.png"}, "style": {"category": {"createDate": "2012-03-21 20:06:46", "id": 7, "name": "European-germanic Lager"}, "ogMin": "1.026", "description": "These beers are very light in body and color. Malt sweetness is perceived at low to medium levels, while hop bitterness character is perceived at medium levels. Hop flavor and aroma may be low to medium. These beers should be clean with no perceived fruity esters or diacetyl. Very low levels of sulfur related compounds acceptable. Chill haze is not acceptable.", "createDate": "2012-03-21 20:06:46", "ibuMin": "16", "categoryId": 7, "srmMax": "4", "ibuMax": "24", "abvMin": "2.5", "fgMin": "1.006", "updateDate": "2015-04-07 17:14:37", "fgMax": "1.01", "shortName": "Leichtbier", "abvMax": "3.6", "id": 77, "srmMin": "2", "name": "German-Style Leichtbier"}, "name": "Krombacher Radler", "servingTemperature": "cold", "glass": {"createDate": "2012-01-03 02:41:33", "id": 4, "name": "Pilsner"}, "servingTemperatureDisplay": "Cold - (4-7C/39-45F)", "createDate": "2012-08-12 12:14:26", "updateDate": "2015-12-16 18:48:43", "abv": "2.5", "styleId": 77, "availableId": 1, "id": "PfaKsy", "glasswareId": 4}, {"status": "verified", "available": {"description": "Available year round as a staple beer.", "id": 1, "name": "Year Round"}, "isOrganic": "N", "breweries": [{"website": "http://www.krombacher.de/", "established": "1803", "isOrganic": "N", "description": "The brewery was founded on 4 February 1803 by John Haas. His father, Johann Eberhard Haas chatted in Krombach an inn. As for a Regulation of 25 July 1618 serving of beer was only allowed if the restaurant also had its own brewery and a malt kiln, John Haas set up a brewery in the family business. \r\n\r\nThe water for the brewery (\"Hasbrauerei\") they picked first in barrels from a spring at the foot of the Grumbergs in the west of the village by bullock carts to brewery. 1854 had a brewery owner Haas church annual 17 Gulden (Florin) pay rent that the water pipeline was conducted on church land to the village.", "statusDisplay": "Verified", "createDate": "2012-01-03 02:42:00", "locations": [{"status": "verified", "openToPublic": "Y", "isPrimary": "Y", "id": "yhMoEc", "locationTypeDisplay": "Micro Brewery", "inPlanning": "N", "locality": "Kreuztal-Krombach,", "createDate": "2012-01-03 02:42:00", "streetAddress": "Hagener Stra\u00dfe 261", "postalCode": "57223", "website": "http://www.krombacher.de/", "statusDisplay": "Verified", "countryIsoCode": "DE", "phone": "(2732) 880 380", "isClosed": "N", "name": "Main Brewery", "latitude": 50.99106, "locationType": "micro", "region": "North Rhine-Westphalia", "longitude": 7.95535, "updateDate": "2014-07-23 19:11:34", "country": {"displayName": "Germany", "name": "GERMANY", "isoThree": "DEU", "createDate": "2012-01-03 02:41:33", "numberCode": 276, "isoCode": "DE"}}, {"inPlanning": "N", "countryIsoCode": "DE", "name": "Main Brewery", "openToPublic": "Y", "locationType": "micro", "region": "Nordrhein-Westfalen", "longitude": 7.497394, "isClosed": "N", "createDate": "2012-08-12 14:45:53", "status": "deleted", "updateDate": "2014-07-23 19:11:34", "country": {"displayName": "Germany", "name": "GERMANY", "isoThree": "DEU", "createDate": "2012-01-03 02:41:33", "numberCode": 276, "isoCode": "DE"}, "latitude": 51.503106, "isPrimary": "N", "id": "UfxKKB", "locationTypeDisplay": "Micro Brewery", "statusDisplay": "Deleted"}], "nameShortDisplay": "Krombacher Gruppe", "status": "verified", "updateDate": "2015-12-22 15:27:11", "images": {"large": "https://s3.amazonaws.com/brewerydbapi/brewery/AP2EQU/upload_wp62Im-large.png", "medium": "https://s3.amazonaws.com/brewerydbapi/brewery/AP2EQU/upload_wp62Im-medium.png", "squareMedium": "https://s3.amazonaws.com/brewerydbapi/brewery/AP2EQU/upload_wp62Im-squareMedium.png", "squareLarge": "https://s3.amazonaws.com/brewerydbapi/brewery/AP2EQU/upload_wp62Im-squareLarge.png", "icon": "https://s3.amazonaws.com/brewerydbapi/brewery/AP2EQU/upload_wp62Im-icon.png"}, "id": "AP2EQU", "name": "Krombacher Gruppe"}], "description": "The popular Krombacher wheat makes in this refreshing new interpretation of the classic for the full-bodied flavor. The perfect complement to this is the specially tailored to the fruity wheat flavor lemonade. Thus the two components combine into a mature, full-bodied, fresh taste experience. Krombacher wheat cyclists - there's also alcohol free.", "statusDisplay": "Verified", "nameDisplay": "Krombacher Radler Alkoholfrei", "servingTemperatureDisplay": "Very Cold - (0-4C/32-39F)", "style": {"category": {"createDate": "2012-03-21 20:06:46", "id": 11, "name": "Hybrid/mixed Beer"}, "description": "Non-alcoholic (NA) malt beverages should emulate the character of a previously listed category/subcategory designation but without the alcohol (less than 0.5 percent). Non-alcoholic (beer) malt beverages will inherently have a profile lacking the complexity and balance of flavors which can be attributed to alcohol. They should accordingly not be assessed negatively for reasons related to the absence of alcohol.", "createDate": "2012-03-21 20:06:46", "categoryId": 11, "updateDate": "2015-04-07 15:47:18", "shortName": "Non-Alcoholic", "id": 139, "name": "Non-Alcoholic (Beer) Malt Beverages"}, "name": "Krombacher Radler Alkoholfrei", "servingTemperature": "very_cold", "glass": {"createDate": "2012-01-03 02:41:33", "id": 4, "name": "Pilsner"}, "createDate": "2014-04-19 19:21:20", "updateDate": "2014-04-22 12:24:06", "abv": "0.5", "styleId": 139, "availableId": 1, "id": "KlPzrl", "glasswareId": 4}, {"status": "verified", "available": {"description": "Available year round as a staple beer.", "id": 1, "name": "Year Round"}, "isOrganic": "N", "breweries": [{"website": "http://www.krombacher.de/", "established": "1803", "isOrganic": "N", "description": "The brewery was founded on 4 February 1803 by John Haas. His father, Johann Eberhard Haas chatted in Krombach an inn. As for a Regulation of 25 July 1618 serving of beer was only allowed if the restaurant also had its own brewery and a malt kiln, John Haas set up a brewery in the family business. \r\n\r\nThe water for the brewery (\"Hasbrauerei\") they picked first in barrels from a spring at the foot of the Grumbergs in the west of the village by bullock carts to brewery. 1854 had a brewery owner Haas church annual 17 Gulden (Florin) pay rent that the water pipeline was conducted on church land to the village.", "statusDisplay": "Verified", "createDate": "2012-01-03 02:42:00", "locations": [{"status": "verified", "openToPublic": "Y", "isPrimary": "Y", "id": "yhMoEc", "locationTypeDisplay": "Micro Brewery", "inPlanning": "N", "locality": "Kreuztal-Krombach,", "createDate": "2012-01-03 02:42:00", "streetAddress": "Hagener Stra\u00dfe 261", "postalCode": "57223", "website": "http://www.krombacher.de/", "statusDisplay": "Verified", "countryIsoCode": "DE", "phone": "(2732) 880 380", "isClosed": "N", "name": "Main Brewery", "latitude": 50.99106, "locationType": "micro", "region": "North Rhine-Westphalia", "longitude": 7.95535, "updateDate": "2014-07-23 19:11:34", "country": {"displayName": "Germany", "name": "GERMANY", "isoThree": "DEU", "createDate": "2012-01-03 02:41:33", "numberCode": 276, "isoCode": "DE"}}, {"inPlanning": "N", "countryIsoCode": "DE", "name": "Main Brewery", "openToPublic": "Y", "locationType": "micro", "region": "Nordrhein-Westfalen", "longitude": 7.497394, "isClosed": "N", "createDate": "2012-08-12 14:45:53", "status": "deleted", "updateDate": "2014-07-23 19:11:34", "country": {"displayName": "Germany", "name": "GERMANY", "isoThree": "DEU", "createDate": "2012-01-03 02:41:33", "numberCode": 276, "isoCode": "DE"}, "latitude": 51.503106, "isPrimary": "N", "id": "UfxKKB", "locationTypeDisplay": "Micro Brewery", "statusDisplay": "Deleted"}], "nameShortDisplay": "Krombacher Gruppe", "status": "verified", "updateDate": "2015-12-22 15:27:11", "images": {"large": "https://s3.amazonaws.com/brewerydbapi/brewery/AP2EQU/upload_wp62Im-large.png", "medium": "https://s3.amazonaws.com/brewerydbapi/brewery/AP2EQU/upload_wp62Im-medium.png", "squareMedium": "https://s3.amazonaws.com/brewerydbapi/brewery/AP2EQU/upload_wp62Im-squareMedium.png", "squareLarge": "https://s3.amazonaws.com/brewerydbapi/brewery/AP2EQU/upload_wp62Im-squareLarge.png", "icon": "https://s3.amazonaws.com/brewerydbapi/brewery/AP2EQU/upload_wp62Im-icon.png"}, "id": "AP2EQU", "name": "Krombacher Gruppe"}], "description": "Our perfect wheat beer that stands above all: the taste. Impressive full-bodied, fruity and tangy.These impressive taste, we have developed in close collaboration with the real beer experts: you.", "statusDisplay": "Verified", "nameDisplay": "Krombacher Weizen", "labels": {"large": "https://s3.amazonaws.com/brewerydbapi/beer/eJ1xBq/upload_YPUsJa-large.png", "medium": "https://s3.amazonaws.com/brewerydbapi/beer/eJ1xBq/upload_YPUsJa-medium.png", "icon": "https://s3.amazonaws.com/brewerydbapi/beer/eJ1xBq/upload_YPUsJa-icon.png"}, "style": {"category": {"createDate": "2012-03-21 20:06:46", "id": 4, "name": "German Origin Ales"}, "ogMin": "1.028", "description": "The German word leicht means light, and as such these beers are light versions of Hefeweizen. Leicht Weissbier is top fermented and cloudy like Hefeweizen. The phenolic and estery aromas and flavors typical of Weissbiers are more subdued in Leichtes Weizen. Hop flavor and aroma are normally absent. The overall flavor profile is less complex than Hefeweizen due to decreased alcohol content. There is less yeasty flavor present. Leichtes Weissbier has diminished mouth feel relative to Hefeweizen, and is a low-bodied beer. No diacetyl should be perceived. The beer may have a broad range of color from pale golden to pale amber.", "createDate": "2012-03-21 20:06:46", "ibuMin": "10", "categoryId": 4, "srmMax": "15", "ibuMax": "20", "abvMin": "2.5", "fgMin": "1.004", "updateDate": "2015-04-07 15:29:45", "fgMax": "1.008", "shortName": "Leichtesweizen", "abvMax": "3.5", "id": 50, "srmMin": "4", "name": "German-Style Leichtes Weizen / Weissbier"}, "name": "Krombacher Weizen", "servingTemperature": "cool", "glass": {"createDate": "2012-01-03 02:41:33", "id": 9, "name": "Weizen"}, "servingTemperatureDisplay": "Cool - (8-12C/45-54F)", "createDate": "2012-08-12 12:14:27", "updateDate": "2015-12-16 18:32:47", "abv": "5.3", "styleId": 50, "availableId": 1, "id": "eJ1xBq", "glasswareId": 9}, {"status": "verified", "available": {"description": "Available year round as a staple beer.", "id": 1, "name": "Year Round"}, "isOrganic": "N", "breweries": [{"website": "http://www.krombacher.de/", "established": "1803", "isOrganic": "N", "description": "The brewery was founded on 4 February 1803 by John Haas. His father, Johann Eberhard Haas chatted in Krombach an inn. As for a Regulation of 25 July 1618 serving of beer was only allowed if the restaurant also had its own brewery and a malt kiln, John Haas set up a brewery in the family business. \r\n\r\nThe water for the brewery (\"Hasbrauerei\") they picked first in barrels from a spring at the foot of the Grumbergs in the west of the village by bullock carts to brewery. 1854 had a brewery owner Haas church annual 17 Gulden (Florin) pay rent that the water pipeline was conducted on church land to the village.", "statusDisplay": "Verified", "createDate": "2012-01-03 02:42:00", "locations": [{"status": "verified", "openToPublic": "Y", "isPrimary": "Y", "id": "yhMoEc", "locationTypeDisplay": "Micro Brewery", "inPlanning": "N", "locality": "Kreuztal-Krombach,", "createDate": "2012-01-03 02:42:00", "streetAddress": "Hagener Stra\u00dfe 261", "postalCode": "57223", "website": "http://www.krombacher.de/", "statusDisplay": "Verified", "countryIsoCode": "DE", "phone": "(2732) 880 380", "isClosed": "N", "name": "Main Brewery", "latitude": 50.99106, "locationType": "micro", "region": "North Rhine-Westphalia", "longitude": 7.95535, "updateDate": "2014-07-23 19:11:34", "country": {"displayName": "Germany", "name": "GERMANY", "isoThree": "DEU", "createDate": "2012-01-03 02:41:33", "numberCode": 276, "isoCode": "DE"}}, {"inPlanning": "N", "countryIsoCode": "DE", "name": "Main Brewery", "openToPublic": "Y", "locationType": "micro", "region": "Nordrhein-Westfalen", "longitude": 7.497394, "isClosed": "N", "createDate": "2012-08-12 14:45:53", "status": "deleted", "updateDate": "2014-07-23 19:11:34", "country": {"displayName": "Germany", "name": "GERMANY", "isoThree": "DEU", "createDate": "2012-01-03 02:41:33", "numberCode": 276, "isoCode": "DE"}, "latitude": 51.503106, "isPrimary": "N", "id": "UfxKKB", "locationTypeDisplay": "Micro Brewery", "statusDisplay": "Deleted"}], "nameShortDisplay": "Krombacher Gruppe", "status": "verified", "updateDate": "2015-12-22 15:27:11", "images": {"large": "https://s3.amazonaws.com/brewerydbapi/brewery/AP2EQU/upload_wp62Im-large.png", "medium": "https://s3.amazonaws.com/brewerydbapi/brewery/AP2EQU/upload_wp62Im-medium.png", "squareMedium": "https://s3.amazonaws.com/brewerydbapi/brewery/AP2EQU/upload_wp62Im-squareMedium.png", "squareLarge": "https://s3.amazonaws.com/brewerydbapi/brewery/AP2EQU/upload_wp62Im-squareLarge.png", "icon": "https://s3.amazonaws.com/brewerydbapi/brewery/AP2EQU/upload_wp62Im-icon.png"}, "id": "AP2EQU", "name": "Krombacher Gruppe"}], "description": "Beer Krombacher Weizen Alkofrei is good foaming light non-alcoholic unfiltered beer with authentic rich flavor and aroma of young wheat. Thanks unfiltered yeast particles Krombacher Weizen nonalcoholic has a characteristic opaque color. Before use, shake the recommended beer.", "statusDisplay": "Verified", "nameDisplay": "Krombacher Weizen Alkoholfrei", "labels": {"large": "https://s3.amazonaws.com/brewerydbapi/beer/iRhBiK/upload_ckRqkt-large.png", "medium": "https://s3.amazonaws.com/brewerydbapi/beer/iRhBiK/upload_ckRqkt-medium.png", "icon": "https://s3.amazonaws.com/brewerydbapi/beer/iRhBiK/upload_ckRqkt-icon.png"}, "style": {"category": {"createDate": "2012-03-21 20:06:46", "id": 11, "name": "Hybrid/mixed Beer"}, "description": "Non-alcoholic (NA) malt beverages should emulate the character of a previously listed category/subcategory designation but without the alcohol (less than 0.5 percent). Non-alcoholic (beer) malt beverages will inherently have a profile lacking the complexity and balance of flavors which can be attributed to alcohol. They should accordingly not be assessed negatively for reasons related to the absence of alcohol.", "createDate": "2012-03-21 20:06:46", "categoryId": 11, "updateDate": "2015-04-07 15:47:18", "shortName": "Non-Alcoholic", "id": 139, "name": "Non-Alcoholic (Beer) Malt Beverages"}, "name": "Krombacher Weizen Alkoholfrei", "servingTemperature": "cool", "glass": {"createDate": "2012-01-03 02:41:33", "id": 9, "name": "Weizen"}, "servingTemperatureDisplay": "Cool - (8-12C/45-54F)", "createDate": "2014-04-19 19:01:40", "updateDate": "2015-12-17 12:33:08", "abv": "0.4", "styleId": 139, "availableId": 1, "id": "iRhBiK", "glasswareId": 9}, {"status": "verified", "available": {"description": "Available year round as a staple beer.", "id": 1, "name": "Year Round"}, "isOrganic": "N", "breweries": [{"website": "http://www.krombacher.de/", "established": "1803", "isOrganic": "N", "description": "The brewery was founded on 4 February 1803 by John Haas. His father, Johann Eberhard Haas chatted in Krombach an inn. As for a Regulation of 25 July 1618 serving of beer was only allowed if the restaurant also had its own brewery and a malt kiln, John Haas set up a brewery in the family business. \r\n\r\nThe water for the brewery (\"Hasbrauerei\") they picked first in barrels from a spring at the foot of the Grumbergs in the west of the village by bullock carts to brewery. 1854 had a brewery owner Haas church annual 17 Gulden (Florin) pay rent that the water pipeline was conducted on church land to the village.", "statusDisplay": "Verified", "createDate": "2012-01-03 02:42:00", "locations": [{"status": "verified", "openToPublic": "Y", "isPrimary": "Y", "id": "yhMoEc", "locationTypeDisplay": "Micro Brewery", "inPlanning": "N", "locality": "Kreuztal-Krombach,", "createDate": "2012-01-03 02:42:00", "streetAddress": "Hagener Stra\u00dfe 261", "postalCode": "57223", "website": "http://www.krombacher.de/", "statusDisplay": "Verified", "countryIsoCode": "DE", "phone": "(2732) 880 380", "isClosed": "N", "name": "Main Brewery", "latitude": 50.99106, "locationType": "micro", "region": "North Rhine-Westphalia", "longitude": 7.95535, "updateDate": "2014-07-23 19:11:34", "country": {"displayName": "Germany", "name": "GERMANY", "isoThree": "DEU", "createDate": "2012-01-03 02:41:33", "numberCode": 276, "isoCode": "DE"}}, {"inPlanning": "N", "countryIsoCode": "DE", "name": "Main Brewery", "openToPublic": "Y", "locationType": "micro", "region": "Nordrhein-Westfalen", "longitude": 7.497394, "isClosed": "N", "createDate": "2012-08-12 14:45:53", "status": "deleted", "updateDate": "2014-07-23 19:11:34", "country": {"displayName": "Germany", "name": "GERMANY", "isoThree": "DEU", "createDate": "2012-01-03 02:41:33", "numberCode": 276, "isoCode": "DE"}, "latitude": 51.503106, "isPrimary": "N", "id": "UfxKKB", "locationTypeDisplay": "Micro Brewery", "statusDisplay": "Deleted"}], "nameShortDisplay": "Krombacher Gruppe", "status": "verified", "updateDate": "2015-12-22 15:27:11", "images": {"large": "https://s3.amazonaws.com/brewerydbapi/brewery/AP2EQU/upload_wp62Im-large.png", "medium": "https://s3.amazonaws.com/brewerydbapi/brewery/AP2EQU/upload_wp62Im-medium.png", "squareMedium": "https://s3.amazonaws.com/brewerydbapi/brewery/AP2EQU/upload_wp62Im-squareMedium.png", "squareLarge": "https://s3.amazonaws.com/brewerydbapi/brewery/AP2EQU/upload_wp62Im-squareLarge.png", "icon": "https://s3.amazonaws.com/brewerydbapi/brewery/AP2EQU/upload_wp62Im-icon.png"}, "id": "AP2EQU", "name": "Krombacher Gruppe"}], "description": "Bottle. Creamy off-white excellent fully lasting head. Dark amber colour. Moderate malty and hoppy and yeasty aroma. Moderate bitter flavor. Average moderate bitter finish. Caramel and esters present. Oily palate.", "statusDisplay": "Verified", "nameDisplay": "Krombacher Weizen Dunkel", "servingTemperatureDisplay": "Cool - (8-12C/45-54F)", "style": {"category": {"createDate": "2012-03-21 20:06:46", "id": 4, "name": "German Origin Ales"}, "ogMin": "1.028", "description": "The German word leicht means light, and as such these beers are light versions of Hefeweizen. Leicht Weissbier is top fermented and cloudy like Hefeweizen. The phenolic and estery aromas and flavors typical of Weissbiers are more subdued in Leichtes Weizen. Hop flavor and aroma are normally absent. The overall flavor profile is less complex than Hefeweizen due to decreased alcohol content. There is less yeasty flavor present. Leichtes Weissbier has diminished mouth feel relative to Hefeweizen, and is a low-bodied beer. No diacetyl should be perceived. The beer may have a broad range of color from pale golden to pale amber.", "createDate": "2012-03-21 20:06:46", "ibuMin": "10", "categoryId": 4, "srmMax": "15", "ibuMax": "20", "abvMin": "2.5", "fgMin": "1.004", "updateDate": "2015-04-07 15:29:45", "fgMax": "1.008", "shortName": "Leichtesweizen", "abvMax": "3.5", "id": 50, "srmMin": "4", "name": "German-Style Leichtes Weizen / Weissbier"}, "name": "Krombacher Weizen Dunkel", "servingTemperature": "cool", "glass": {"createDate": "2012-01-03 02:41:33", "id": 9, "name": "Weizen"}, "createDate": "2014-04-19 19:28:18", "updateDate": "2015-04-22 18:15:25", "abv": "5.3", "styleId": 50, "availableId": 1, "id": "x58o1C", "glasswareId": 9}, {"status": "verified", "available": {"description": "Available year round as a staple beer.", "id": 1, "name": "Year Round"}, "isOrganic": "N", "breweries": [{"website": "http://www.forst.it/", "established": "1857", "isOrganic": "N", "description": "Just outside Merano, on the way to the Val Venosta, a complex of buildings perfectly in keeping with their surroundings catches the eye. They are decorated in a graceful, highly tasteful manner and almost blend in with the flourishing local vegetation. Anyone who is curious enough to ask the name of this \u201cvillage\u201d \u2013 because that is what it looks like at first sight \u2013 will simply receive the answer \u201cThat\u2019s FORST\u201d. It is not called the \u201cbeer factory\u201d or the \u201cbrewery\u201d, but \u201cFORST\u201d. The name is inherently linked with the local area. It stands for tradition and love for nature, but also striving to ensure that the quality of its products remains consistently high. Traditional and modern values go hand in hand, making positive contributions to each other: this is the guiding concept of FORST.", "statusDisplay": "Verified", "createDate": "2012-01-03 02:41:46", "locations": [{"website": "http://www.forst.it/", "inPlanning": "N", "name": "Main Brewery", "locality": "Lagundo / Algund", "openToPublic": "Y", "locationType": "micro", "createDate": "2012-01-03 02:41:46", "countryIsoCode": "IT", "longitude": 11.1332369, "isClosed": "N", "phone": "39-0473-260111", "streetAddress": "Via Val Venosta, 8", "status": "verified", "updateDate": "2014-07-23 19:11:34", "country": {"displayName": "Italy", "name": "ITALY", "isoThree": "ITA", "createDate": "2012-01-03 02:41:33", "numberCode": 380, "isoCode": "IT"}, "latitude": 46.6804881, "isPrimary": "Y", "id": "AnN3Lm", "locationTypeDisplay": "Micro Brewery", "statusDisplay": "Verified"}], "nameShortDisplay": "Birra Forst", "status": "verified", "updateDate": "2015-12-22 14:39:54", "images": {"large": "https://s3.amazonaws.com/brewerydbapi/brewery/s53vAs/upload_LV6Hlh-large.png", "medium": "https://s3.amazonaws.com/brewerydbapi/brewery/s53vAs/upload_LV6Hlh-medium.png", "squareMedium": "https://s3.amazonaws.com/brewerydbapi/brewery/s53vAs/upload_LV6Hlh-squareMedium.png", "squareLarge": "https://s3.amazonaws.com/brewerydbapi/brewery/s53vAs/upload_LV6Hlh-squareLarge.png", "icon": "https://s3.amazonaws.com/brewerydbapi/brewery/s53vAs/upload_LV6Hlh-icon.png"}, "id": "s53vAs", "name": "Birra Forst"}], "description": "A special beer with a full flavour featuring malty notes, a golden yellow colour and understated, subtle hoppiness. There is a slight grassy fragrance to the aftertaste, which comes together with the sweet sensation left on the lips to make another sip irresistible. It is made with an age-old recipe and will fully satisfy all genuine beer connoisseurs.", "statusDisplay": "Verified", "nameDisplay": "Kronen", "labels": {"large": "https://s3.amazonaws.com/brewerydbapi/beer/6p9PHE/upload_Zo8xW2-large.png", "medium": "https://s3.amazonaws.com/brewerydbapi/beer/6p9PHE/upload_Zo8xW2-medium.png", "icon": "https://s3.amazonaws.com/brewerydbapi/beer/6p9PHE/upload_Zo8xW2-icon.png"}, "style": {"category": {"createDate": "2012-03-21 20:06:46", "id": 6, "name": "International Ale Styles"}, "ogMin": "1.044", "description": "International-style pale ales range from deep golden to copper in color. The style is characterized by wide range of hop characters unlike fruity, floral and citrus-like American-variety hop character and unlike earthy, herbal English-variety hop character. Moderate to high hop bitterness, flavor, and aroma is evident. International pale ales have medium body and low to medium maltiness. Low caramel character is allowable. Fruity-ester flavor and aroma should be moderate to strong. Diacetyl should be absent or present at very low levels. Chill haze is allowable at cold temperatures.", "createDate": "2012-03-21 20:06:46", "ibuMin": "30", "categoryId": 6, "srmMax": "14", "ibuMax": "42", "abvMin": "4.5", "fgMin": "1.008", "updateDate": "2015-04-07 15:35:08", "fgMax": "1.014", "shortName": "International Pale", "abvMax": "5.5", "id": 73, "srmMin": "6", "name": "International-Style Pale Ale"}, "name": "Kronen", "servingTemperature": "cold", "glass": {"createDate": "2012-01-03 02:41:33", "id": 2, "name": "Goblet"}, "servingTemperatureDisplay": "Cold - (4-7C/39-45F)", "createDate": "2014-04-09 22:03:27", "updateDate": "2015-12-17 10:55:35", "abv": "5.2", "styleId": 73, "availableId": 1, "id": "6p9PHE", "glasswareId": 2}, {"status": "verified", "isOrganic": "N", "statusDisplay": "Verified", "nameDisplay": "Kronen Bier Kellerpils", "breweries": [{"website": "http://www.kronenbier.de/", "established": "1887", "isOrganic": "N", "name": "Kronenbrauerei S\u00f6flingen", "createDate": "2012-08-07 10:17:23", "locations": [{"inPlanning": "N", "countryIsoCode": "DE", "name": "Main Brewery", "locality": "Ulm - S\u00f6flingen", "openToPublic": "Y", "locationType": "micro", "region": "Baden-W\u00fcrttemberg", "longitude": -115.057701, "isClosed": "N", "latitude": 36.151604, "streetAddress": "Uhrenmachergasse 10", "createDate": "2012-08-16 13:18:58", "status": "verified", "updateDate": "2014-07-23 19:11:34", "country": {"displayName": "Germany", "name": "GERMANY", "isoThree": "DEU", "createDate": "2012-01-03 02:41:33", "numberCode": 276, "isoCode": "DE"}, "postalCode": "89077", "isPrimary": "Y", "id": "uQ5zWa", "locationTypeDisplay": "Micro Brewery", "statusDisplay": "Verified"}], "nameShortDisplay": "Kronenbrauerei S\u00f6flingen", "status": "verified", "updateDate": "2015-12-22 15:31:49", "id": "nm7Uff", "statusDisplay": "Verified"}], "createDate": "2012-08-12 12:04:47", "updateDate": "2012-08-17 17:13:26", "id": "L78vB4", "name": "Kronen Bier Kellerpils"}, {"status": "verified", "isOrganic": "N", "statusDisplay": "Verified", "nameDisplay": "Kronen Bier Kloster Dunkle Weisse", "breweries": [{"website": "http://www.kronenbier.de/", "established": "1887", "isOrganic": "N", "name": "Kronenbrauerei S\u00f6flingen", "createDate": "2012-08-07 10:17:23", "locations": [{"inPlanning": "N", "countryIsoCode": "DE", "name": "Main Brewery", "locality": "Ulm - S\u00f6flingen", "openToPublic": "Y", "locationType": "micro", "region": "Baden-W\u00fcrttemberg", "longitude": -115.057701, "isClosed": "N", "latitude": 36.151604, "streetAddress": "Uhrenmachergasse 10", "createDate": "2012-08-16 13:18:58", "status": "verified", "updateDate": "2014-07-23 19:11:34", "country": {"displayName": "Germany", "name": "GERMANY", "isoThree": "DEU", "createDate": "2012-01-03 02:41:33", "numberCode": 276, "isoCode": "DE"}, "postalCode": "89077", "isPrimary": "Y", "id": "uQ5zWa", "locationTypeDisplay": "Micro Brewery", "statusDisplay": "Verified"}], "nameShortDisplay": "Kronenbrauerei S\u00f6flingen", "status": "verified", "updateDate": "2015-12-22 15:31:49", "id": "nm7Uff", "statusDisplay": "Verified"}], "createDate": "2012-08-12 12:04:48", "updateDate": "2012-08-17 17:13:29", "id": "ZkaXTw", "name": "Kronen Bier Kloster Dunkle Weisse"}, {"status": "verified", "isOrganic": "N", "statusDisplay": "Verified", "nameDisplay": "Kronen Bier Kloster Urtrunk", "breweries": [{"website": "http://www.kronenbier.de/", "established": "1887", "isOrganic": "N", "name": "Kronenbrauerei S\u00f6flingen", "createDate": "2012-08-07 10:17:23", "locations": [{"inPlanning": "N", "countryIsoCode": "DE", "name": "Main Brewery", "locality": "Ulm - S\u00f6flingen", "openToPublic": "Y", "locationType": "micro", "region": "Baden-W\u00fcrttemberg", "longitude": -115.057701, "isClosed": "N", "latitude": 36.151604, "streetAddress": "Uhrenmachergasse 10", "createDate": "2012-08-16 13:18:58", "status": "verified", "updateDate": "2014-07-23 19:11:34", "country": {"displayName": "Germany", "name": "GERMANY", "isoThree": "DEU", "createDate": "2012-01-03 02:41:33", "numberCode": 276, "isoCode": "DE"}, "postalCode": "89077", "isPrimary": "Y", "id": "uQ5zWa", "locationTypeDisplay": "Micro Brewery", "statusDisplay": "Verified"}], "nameShortDisplay": "Kronenbrauerei S\u00f6flingen", "status": "verified", "updateDate": "2015-12-22 15:31:49", "id": "nm7Uff", "statusDisplay": "Verified"}], "createDate": "2012-08-12 12:04:47", "updateDate": "2012-08-17 17:13:24", "id": "inQ71d", "name": "Kronen Bier Kloster Urtrunk"}, {"status": "verified", "isOrganic": "N", "statusDisplay": "Verified", "nameDisplay": "Kronen Bier Kloster Weisse", "breweries": [{"website": "http://www.kronenbier.de/", "established": "1887", "isOrganic": "N", "name": "Kronenbrauerei S\u00f6flingen", "createDate": "2012-08-07 10:17:23", "locations": [{"inPlanning": "N", "countryIsoCode": "DE", "name": "Main Brewery", "locality": "Ulm - S\u00f6flingen", "openToPublic": "Y", "locationType": "micro", "region": "Baden-W\u00fcrttemberg", "longitude": -115.057701, "isClosed": "N", "latitude": 36.151604, "streetAddress": "Uhrenmachergasse 10", "createDate": "2012-08-16 13:18:58", "status": "verified", "updateDate": "2014-07-23 19:11:34", "country": {"displayName": "Germany", "name": "GERMANY", "isoThree": "DEU", "createDate": "2012-01-03 02:41:33", "numberCode": 276, "isoCode": "DE"}, "postalCode": "89077", "isPrimary": "Y", "id": "uQ5zWa", "locationTypeDisplay": "Micro Brewery", "statusDisplay": "Verified"}], "nameShortDisplay": "Kronenbrauerei S\u00f6flingen", "status": "verified", "updateDate": "2015-12-22 15:31:49", "id": "nm7Uff", "statusDisplay": "Verified"}], "createDate": "2012-08-12 12:04:48", "updateDate": "2012-08-17 17:13:28", "id": "xQrjKV", "name": "Kronen Bier Kloster Weisse"}, {"status": "verified", "isOrganic": "N", "statusDisplay": "Verified", "nameDisplay": "Kronen Bier Maibock", "breweries": [{"website": "http://www.kronenbier.de/", "established": "1887", "isOrganic": "N", "name": "Kronenbrauerei S\u00f6flingen", "createDate": "2012-08-07 10:17:23", "locations": [{"inPlanning": "N", "countryIsoCode": "DE", "name": "Main Brewery", "locality": "Ulm - S\u00f6flingen", "openToPublic": "Y", "locationType": "micro", "region": "Baden-W\u00fcrttemberg", "longitude": -115.057701, "isClosed": "N", "latitude": 36.151604, "streetAddress": "Uhrenmachergasse 10", "createDate": "2012-08-16 13:18:58", "status": "verified", "updateDate": "2014-07-23 19:11:34", "country": {"displayName": "Germany", "name": "GERMANY", "isoThree": "DEU", "createDate": "2012-01-03 02:41:33", "numberCode": 276, "isoCode": "DE"}, "postalCode": "89077", "isPrimary": "Y", "id": "uQ5zWa", "locationTypeDisplay": "Micro Brewery", "statusDisplay": "Verified"}], "nameShortDisplay": "Kronenbrauerei S\u00f6flingen", "status": "verified", "updateDate": "2015-12-22 15:31:49", "id": "nm7Uff", "statusDisplay": "Verified"}], "createDate": "2012-08-12 12:04:50", "updateDate": "2012-08-17 17:13:34", "id": "31Tm5g", "name": "Kronen Bier Maibock"}, {"status": "verified", "isOrganic": "N", "statusDisplay": "Verified", "nameDisplay": "Kronen Bier Natureis Lager", "breweries": [{"website": "http://www.kronenbier.de/", "established": "1887", "isOrganic": "N", "name": "Kronenbrauerei S\u00f6flingen", "createDate": "2012-08-07 10:17:23", "locations": [{"inPlanning": "N", "countryIsoCode": "DE", "name": "Main Brewery", "locality": "Ulm - S\u00f6flingen", "openToPublic": "Y", "locationType": "micro", "region": "Baden-W\u00fcrttemberg", "longitude": -115.057701, "isClosed": "N", "latitude": 36.151604, "streetAddress": "Uhrenmachergasse 10", "createDate": "2012-08-16 13:18:58", "status": "verified", "updateDate": "2014-07-23 19:11:34", "country": {"displayName": "Germany", "name": "GERMANY", "isoThree": "DEU", "createDate": "2012-01-03 02:41:33", "numberCode": 276, "isoCode": "DE"}, "postalCode": "89077", "isPrimary": "Y", "id": "uQ5zWa", "locationTypeDisplay": "Micro Brewery", "statusDisplay": "Verified"}], "nameShortDisplay": "Kronenbrauerei S\u00f6flingen", "status": "verified", "updateDate": "2015-12-22 15:31:49", "id": "nm7Uff", "statusDisplay": "Verified"}], "createDate": "2012-08-12 12:04:50", "updateDate": "2012-08-17 17:13:32", "id": "QhkxwF", "name": "Kronen Bier Natureis Lager"}, {"status": "verified", "isOrganic": "N", "statusDisplay": "Verified", "nameDisplay": "Kronen Bier Natureis-Bock dunkel", "breweries": [{"website": "http://www.kronenbier.de/", "established": "1887", "isOrganic": "N", "name": "Kronenbrauerei S\u00f6flingen", "createDate": "2012-08-07 10:17:23", "locations": [{"inPlanning": "N", "countryIsoCode": "DE", "name": "Main Brewery", "locality": "Ulm - S\u00f6flingen", "openToPublic": "Y", "locationType": "micro", "region": "Baden-W\u00fcrttemberg", "longitude": -115.057701, "isClosed": "N", "latitude": 36.151604, "streetAddress": "Uhrenmachergasse 10", "createDate": "2012-08-16 13:18:58", "status": "verified", "updateDate": "2014-07-23 19:11:34", "country": {"displayName": "Germany", "name": "GERMANY", "isoThree": "DEU", "createDate": "2012-01-03 02:41:33", "numberCode": 276, "isoCode": "DE"}, "postalCode": "89077", "isPrimary": "Y", "id": "uQ5zWa", "locationTypeDisplay": "Micro Brewery", "statusDisplay": "Verified"}], "nameShortDisplay": "Kronenbrauerei S\u00f6flingen", "status": "verified", "updateDate": "2015-12-22 15:31:49", "id": "nm7Uff", "statusDisplay": "Verified"}], "createDate": "2012-08-12 12:04:49", "updateDate": "2012-08-17 17:13:31", "id": "oO29mo", "name": "Kronen Bier Natureis-Bock dunkel"}, {"status": "verified", "isOrganic": "N", "statusDisplay": "Verified", "nameDisplay": "Kronen Bier Natureis-Bock hell", "breweries": [{"website": "http://www.kronenbier.de/", "established": "1887", "isOrganic": "N", "name": "Kronenbrauerei S\u00f6flingen", "createDate": "2012-08-07 10:17:23", "locations": [{"inPlanning": "N", "countryIsoCode": "DE", "name": "Main Brewery", "locality": "Ulm - S\u00f6flingen", "openToPublic": "Y", "locationType": "micro", "region": "Baden-W\u00fcrttemberg", "longitude": -115.057701, "isClosed": "N", "latitude": 36.151604, "streetAddress": "Uhrenmachergasse 10", "createDate": "2012-08-16 13:18:58", "status": "verified", "updateDate": "2014-07-23 19:11:34", "country": {"displayName": "Germany", "name": "GERMANY", "isoThree": "DEU", "createDate": "2012-01-03 02:41:33", "numberCode": 276, "isoCode": "DE"}, "postalCode": "89077", "isPrimary": "Y", "id": "uQ5zWa", "locationTypeDisplay": "Micro Brewery", "statusDisplay": "Verified"}], "nameShortDisplay": "Kronenbrauerei S\u00f6flingen", "status": "verified", "updateDate": "2015-12-22 15:31:49", "id": "nm7Uff", "statusDisplay": "Verified"}], "createDate": "2012-08-12 12:04:49", "updateDate": "2012-08-17 17:13:29", "id": "C4JLdN", "name": "Kronen Bier Natureis-Bock hell"}, {"status": "verified", "isOrganic": "N", "statusDisplay": "Verified", "nameDisplay": "Kronen Bier Spezial hell", "breweries": [{"website": "http://www.kronenbier.de/", "established": "1887", "isOrganic": "N", "name": "Kronenbrauerei S\u00f6flingen", "createDate": "2012-08-07 10:17:23", "locations": [{"inPlanning": "N", "countryIsoCode": "DE", "name": "Main Brewery", "locality": "Ulm - S\u00f6flingen", "openToPublic": "Y", "locationType": "micro", "region": "Baden-W\u00fcrttemberg", "longitude": -115.057701, "isClosed": "N", "latitude": 36.151604, "streetAddress": "Uhrenmachergasse 10", "createDate": "2012-08-16 13:18:58", "status": "verified", "updateDate": "2014-07-23 19:11:34", "country": {"displayName": "Germany", "name": "GERMANY", "isoThree": "DEU", "createDate": "2012-01-03 02:41:33", "numberCode": 276, "isoCode": "DE"}, "postalCode": "89077", "isPrimary": "Y", "id": "uQ5zWa", "locationTypeDisplay": "Micro Brewery", "statusDisplay": "Verified"}], "nameShortDisplay": "Kronenbrauerei S\u00f6flingen", "status": "verified", "updateDate": "2015-12-22 15:31:49", "id": "nm7Uff", "statusDisplay": "Verified"}], "createDate": "2012-08-12 12:04:46", "updateDate": "2012-08-17 17:13:23", "id": "6ThIsC", "name": "Kronen Bier Spezial hell"}, {"status": "verified", "isOrganic": "N", "statusDisplay": "Verified", "nameDisplay": "Kronen Bier Weihnachtsbier", "breweries": [{"website": "http://www.kronenbier.de/", "established": "1887", "isOrganic": "N", "name": "Kronenbrauerei S\u00f6flingen", "createDate": "2012-08-07 10:17:23", "locations": [{"inPlanning": "N", "countryIsoCode": "DE", "name": "Main Brewery", "locality": "Ulm - S\u00f6flingen", "openToPublic": "Y", "locationType": "micro", "region": "Baden-W\u00fcrttemberg", "longitude": -115.057701, "isClosed": "N", "latitude": 36.151604, "streetAddress": "Uhrenmachergasse 10", "createDate": "2012-08-16 13:18:58", "status": "verified", "updateDate": "2014-07-23 19:11:34", "country": {"displayName": "Germany", "name": "GERMANY", "isoThree": "DEU", "createDate": "2012-01-03 02:41:33", "numberCode": 276, "isoCode": "DE"}, "postalCode": "89077", "isPrimary": "Y", "id": "uQ5zWa", "locationTypeDisplay": "Micro Brewery", "statusDisplay": "Verified"}], "nameShortDisplay": "Kronenbrauerei S\u00f6flingen", "status": "verified", "updateDate": "2015-12-22 15:31:49", "id": "nm7Uff", "statusDisplay": "Verified"}], "createDate": "2012-08-12 12:04:50", "updateDate": "2012-08-17 17:13:35", "id": "fLCaF7", "name": "Kronen Bier Weihnachtsbier"}, {"status": "verified", "isOrganic": "N", "statusDisplay": "Verified", "nameDisplay": "Kronen Dunkel", "breweries": [{"status": "verified", "isOrganic": "N", "statusDisplay": "Verified", "createDate": "2012-08-07 10:16:35", "locations": [{"inPlanning": "N", "countryIsoCode": "DE", "name": "Main Brewery", "locality": "Offenburg", "openToPublic": "Y", "locationType": "micro", "region": "Baden-W\u00fcrttemberg", "longitude": 7.981561, "isClosed": "N", "latitude": 48.47411, "streetAddress": "Zeller Stra\u00dfe 46", "createDate": "2012-08-12 14:45:29", "status": "verified", "updateDate": "2014-07-23 19:11:34", "country": {"displayName": "Germany", "name": "GERMANY", "isoThree": "DEU", "createDate": "2012-01-03 02:41:33", "numberCode": 276, "isoCode": "DE"}, "postalCode": "D-77654", "isPrimary": "N", "id": "lx2yEl", "locationTypeDisplay": "Micro Brewery", "statusDisplay": "Verified"}], "nameShortDisplay": "Kronenbrauerei Offenburg", "updateDate": "2015-12-22 15:30:44", "id": "qv11uQ", "name": "Kronenbrauerei Offenburg"}], "createDate": "2012-08-12 11:57:27", "updateDate": "2012-08-17 14:44:20", "id": "6JROa5", "name": "Kronen Dunkel"}, {"status": "verified", "isOrganic": "N", "statusDisplay": "Verified", "nameDisplay": "Kronen Export", "breweries": [{"status": "verified", "isOrganic": "N", "statusDisplay": "Verified", "createDate": "2012-08-07 10:16:35", "locations": [{"inPlanning": "N", "countryIsoCode": "DE", "name": "Main Brewery", "locality": "Offenburg", "openToPublic": "Y", "locationType": "micro", "region": "Baden-W\u00fcrttemberg", "longitude": 7.981561, "isClosed": "N", "latitude": 48.47411, "streetAddress": "Zeller Stra\u00dfe 46", "createDate": "2012-08-12 14:45:29", "status": "verified", "updateDate": "2014-07-23 19:11:34", "country": {"displayName": "Germany", "name": "GERMANY", "isoThree": "DEU", "createDate": "2012-01-03 02:41:33", "numberCode": 276, "isoCode": "DE"}, "postalCode": "D-77654", "isPrimary": "N", "id": "lx2yEl", "locationTypeDisplay": "Micro Brewery", "statusDisplay": "Verified"}], "nameShortDisplay": "Kronenbrauerei Offenburg", "updateDate": "2015-12-22 15:30:44", "id": "qv11uQ", "name": "Kronenbrauerei Offenburg"}], "createDate": "2012-08-12 11:57:27", "updateDate": "2012-08-17 14:44:19", "id": "TziaQe", "name": "Kronen Export"}, {"status": "verified", "isOrganic": "N", "name": "Kronen Exquisit", "nameDisplay": "Kronen Exquisit", "breweries": [{"status": "verified", "isOrganic": "N", "statusDisplay": "Verified", "createDate": "2012-08-07 10:16:35", "locations": [{"inPlanning": "N", "countryIsoCode": "DE", "name": "Main Brewery", "locality": "Offenburg", "openToPublic": "Y", "locationType": "micro", "region": "Baden-W\u00fcrttemberg", "longitude": 7.981561, "isClosed": "N", "latitude": 48.47411, "streetAddress": "Zeller Stra\u00dfe 46", "createDate": "2012-08-12 14:45:29", "status": "verified", "updateDate": "2014-07-23 19:11:34", "country": {"displayName": "Germany", "name": "GERMANY", "isoThree": "DEU", "createDate": "2012-01-03 02:41:33", "numberCode": 276, "isoCode": "DE"}, "postalCode": "D-77654", "isPrimary": "N", "id": "lx2yEl", "locationTypeDisplay": "Micro Brewery", "statusDisplay": "Verified"}], "nameShortDisplay": "Kronenbrauerei Offenburg", "updateDate": "2015-12-22 15:30:44", "id": "qv11uQ", "name": "Kronenbrauerei Offenburg"}], "style": {"category": {"createDate": "2012-03-21 20:06:46", "id": 7, "name": "European-germanic Lager"}, "ogMin": "1.044", "description": "A classic German Pilsener is very light straw or golden in color and well hopped. Perception of hop bitterness is medium to high. Noble-type hop aroma and flavor are moderate and quite obvious. It is a well-attenuated, medium-light bodied beer, but a malty residual sweetness can be perceived in aroma and flavor. Very low levels of sweet corn-like dimethylsulfide (DMS) character are below most beer drinkers' taste thresholds and are usually not detectable except to the trained or sensitive palate. Other fermentation or hop related sulfur compounds, when perceived at low levels, may be characteristic of this style. Fruity esters and diacetyl should not be perceived. There should be no chill haze. Its head should be dense and rich.", "createDate": "2012-03-21 20:06:46", "ibuMin": "25", "categoryId": 7, "srmMax": "4", "ibuMax": "40", "abvMin": "4", "fgMin": "1.006", "updateDate": "2015-04-07 15:35:59", "fgMax": "1.012", "shortName": "German Pilsener", "abvMax": "5", "id": 75, "srmMin": "3", "name": "German-Style Pilsener"}, "createDate": "2012-08-12 11:57:28", "updateDate": "2012-08-18 23:55:25", "abv": "4.9", "styleId": 75, "id": "idACjW", "statusDisplay": "Verified"}, {"status": "verified", "isOrganic": "N", "statusDisplay": "Verified", "nameDisplay": "Kronen Kr\u00f6nle", "breweries": [{"status": "verified", "isOrganic": "N", "statusDisplay": "Verified", "createDate": "2012-08-07 10:16:35", "locations": [{"inPlanning": "N", "countryIsoCode": "DE", "name": "Main Brewery", "locality": "Offenburg", "openToPublic": "Y", "locationType": "micro", "region": "Baden-W\u00fcrttemberg", "longitude": 7.981561, "isClosed": "N", "latitude": 48.47411, "streetAddress": "Zeller Stra\u00dfe 46", "createDate": "2012-08-12 14:45:29", "status": "verified", "updateDate": "2014-07-23 19:11:34", "country": {"displayName": "Germany", "name": "GERMANY", "isoThree": "DEU", "createDate": "2012-01-03 02:41:33", "numberCode": 276, "isoCode": "DE"}, "postalCode": "D-77654", "isPrimary": "N", "id": "lx2yEl", "locationTypeDisplay": "Micro Brewery", "statusDisplay": "Verified"}], "nameShortDisplay": "Kronenbrauerei Offenburg", "updateDate": "2015-12-22 15:30:44", "id": "qv11uQ", "name": "Kronenbrauerei Offenburg"}], "createDate": "2012-08-12 11:57:29", "updateDate": "2012-08-17 14:44:23", "id": "xGbp2O", "name": "Kronen Kr\u00f6nle"}, {"status": "verified", "isOrganic": "N", "name": "Kronen Pilsner", "nameDisplay": "Kronen Pilsner", "breweries": [{"status": "verified", "isOrganic": "N", "statusDisplay": "Verified", "createDate": "2012-08-07 10:16:35", "locations": [{"inPlanning": "N", "countryIsoCode": "DE", "name": "Main Brewery", "locality": "Offenburg", "openToPublic": "Y", "locationType": "micro", "region": "Baden-W\u00fcrttemberg", "longitude": 7.981561, "isClosed": "N", "latitude": 48.47411, "streetAddress": "Zeller Stra\u00dfe 46", "createDate": "2012-08-12 14:45:29", "status": "verified", "updateDate": "2014-07-23 19:11:34", "country": {"displayName": "Germany", "name": "GERMANY", "isoThree": "DEU", "createDate": "2012-01-03 02:41:33", "numberCode": 276, "isoCode": "DE"}, "postalCode": "D-77654", "isPrimary": "N", "id": "lx2yEl", "locationTypeDisplay": "Micro Brewery", "statusDisplay": "Verified"}], "nameShortDisplay": "Kronenbrauerei Offenburg", "updateDate": "2015-12-22 15:30:44", "id": "qv11uQ", "name": "Kronenbrauerei Offenburg"}], "style": {"category": {"createDate": "2012-03-21 20:06:46", "id": 7, "name": "European-germanic Lager"}, "ogMin": "1.044", "description": "A classic German Pilsener is very light straw or golden in color and well hopped. Perception of hop bitterness is medium to high. Noble-type hop aroma and flavor are moderate and quite obvious. It is a well-attenuated, medium-light bodied beer, but a malty residual sweetness can be perceived in aroma and flavor. Very low levels of sweet corn-like dimethylsulfide (DMS) character are below most beer drinkers' taste thresholds and are usually not detectable except to the trained or sensitive palate. Other fermentation or hop related sulfur compounds, when perceived at low levels, may be characteristic of this style. Fruity esters and diacetyl should not be perceived. There should be no chill haze. Its head should be dense and rich.", "createDate": "2012-03-21 20:06:46", "ibuMin": "25", "categoryId": 7, "srmMax": "4", "ibuMax": "40", "abvMin": "4", "fgMin": "1.006", "updateDate": "2015-04-07 15:35:59", "fgMax": "1.012", "shortName": "German Pilsener", "abvMax": "5", "id": 75, "srmMin": "3", "name": "German-Style Pilsener"}, "createDate": "2012-08-12 11:57:26", "updateDate": "2012-08-18 23:55:27", "abv": "4.8", "styleId": 75, "id": "rfzmHD", "statusDisplay": "Verified"}]
